,25.96,N,48.1,K,N*02
$GPGGA,182648.769,3526.5412,N,08052.5137,W,1,03,2.4,32.9,M,-32.5,M,,0000*5C
$GPGLL,3526.5412,N,08052.5137,W,182648.769,A,A*4D
$GPGSA,A,2,31,32,22,,,,,,,,,,4.0,2.4,3.2*33
$GPGSV,3,1,11,31,63,016,35,22,56,226,30,32,45,100,32,27,67,355,*7C
$GPGSV,3,2,11,14,39,097,33,03,33,307,25,16,26,193,,29,11,081,20*71
$GPGSV,3,3,11,10,07,161,18,23,03,302,,51,,,28*7D
$GPRMC,182648.769,A,3526.5412,N,08052.5137,W,27.12,173.84,090316,,,A*48
$GPVTG,173.84,T,,M,27.12,N,50.2,K,N*0A
$GPGGA,182649.769,3526.5355,N,08052.5100,W,1,03,2.4,32.9,M,-32.5,M,,0000*5D
$GPGLL,3526.5355,N,08052.5100,W,182649.769,A,A*4C
$GPGSA,A,2,31,32,22,,,,,,,,,,4.0,2.4,3.2*33
$GPRMC,182649.769,A,3526.5355,N,08052.5100,W,29.01,170.03,090316,,,A*49
$GPVTG,170.03,T,,M,29.01,N,53.7,K,N*0C
$GPGGA,182650.769,3526.5263,N,08052.5082,W,1,03,2.4,32.9,M,-32.5,M,,0000*5A
$GPGLL,3526.5263,N,08052.5082,W,182650.769,A,A*4B
$GPGSA,A,2,31,32,22,,,,,,,,,,4.0,2.4,3.2*33
$GPRMC,182650.769,A,3526.5263,N,08052.5082,W,31.69,164.20,090316,,,A*4D
$GPVTG,164.20,T,,M,31.69,N,58.7,K,N*04
$GPGGA,182651.769,3526.5231,N,08052.5140,W,1,03,2.4,32.9,M,-32.5,M,,0000*53
$GPGLL,3526.5231,N,08052.5140,W,182651.769,A,A*42
$GPGSA,A,2,31,32,22,,,,,,,,,,4.0,2.4,3.2*33
$GPRMC,182651.769,A,3526.5231,N,08052.5140,W,30.48,158.07,090316,,,A*4C
$GPVTG,158.07,T,,M,30.48,N,56.5,K,N*00
$GPGGA,182652.769,3526.5191,N,08052.5054,W,1,03,2.4,32.9,M,-32.5,M,,0000*5D
$GPGLL,3526.5191,N,08052.5054,W,182652.769,A,A*4C
$GPGSA,A,2,31,32,22,,,,,,,,,,4.0,2.4,3.2*33
$GPRMC,182652.769,A,3526.5191,N,08052.5054,W,27.99,158.11,090316,,,A*4F
$GPVTG,158.11,T,,M,27.99,N,51.8,K,N*07
$GPGGA,182653.769,3526.5121,N,08052.5050,W,1,03,2.4,32.9,M,-32.5,M,,0000*53
$GPGLL,3526.5121,N,08052.5050,W,182653.769,A,A*42
$GPGSA,A,2,31,32,22,,,,,,,,,,4.0,2.4,3.2*33
$GPGSV,3,1,10,31,63,016,29,22,56,226,19,32,45,100,20,27,67,355,*78
$GPGSV,3,2,10,14,39,097,24,03,33,307,14,16,26,193,,29,11,081,18*7F
$GPGSV,3,3,10,10,07,161,,23,03,302,*7B
$GPRMC,182653.769,A,3526.5121,N,08052.5050,W,27.76,155.12,090316,,,A*4E
$GPVTG,155.12,T,,M,27.76,N,51.4,K,N*04
$GPGGA,182654.769,3526.5060,N,08052.5016,W,1,03,2.4,32.9,M,-32.5,M,,0000*52
$GPGLL,3526.5060,N,08052.5016,W,182654.769,A,A*43
$GPGSA,A,2,31,32,22,,,,,,,,,,4.0,2.4,3.2*33
$GPRMC,182654.769,A,3526.5060,N,08052.5016,W,27.47,151.34,090316,,,A*4D
$GPVTG,151.34,T,,M,27.47,N,50.9,K,N*0A
$GPGGA,182655.769,3526.4968,N,08052.4911,W,1,03,2.4,32.9,M,-32.5,M,,0000*5C
$GPGLL,3526.4968,N,08052.4911,W,182655.769,A,A*4D
$GPGSA,A,2,31,32,22,,,,,,,,,,4.0,2.4,3.2*33
$GPRMC,182655.769,A,3526.4968,N,08052.4911,W,27.62,147.37,090316,,,A*40
$GPVTG,147.37,T,,M,27.62,N,51.2,K,N*03
$GPGGA,182656.769,3526.4911,N,08052.4852,W,1,03,2.4,32.9,M,-32.5,M,,0000*57
$GPGLL,3526.4911,N,08052.4852,W,182656.769,A,A*46
$GPGSA,A,2,31,32,22,,,,,,,,,,4.0,2.4,3.2*33
$GPRMC,182656.769,A,3526.4911,N,08052.4852,W,28.17,147.57,090316,,,A*40
$GPVTG,147.57,T,,M,28.17,N,52.2,K,N*0B
$GPGGA,182657.769,3526.4769,N,08052.4704,W,1,03,2.4,32.9,M,-32.5,M,,0000*5B
$GPGLL,3526.4769,N,08052.4704,W,182657.769,A,A*4A
$GPGSA,A,2,31,32,22,,,,,,,,,,4.0,2.4,3.2*33
$GPRMC,182657.769,A,3526.4769,N,08052.4704,W,31.24,141.05,090316,,,A*45
$GPVTG,141.05,T,,M,31.24,N,57.9,K,N*0C
$GPGGA,182658.769,3526.4698,N,08052.4675,W,1,03,2.4,32.9,M,-32.5,M,,0000*5C
$GPGLL,3526.4698,N,08052.4675,W,182658.769,A,A*4D
$GPGSA,A,2,31,32,22,,,,,,,,,,4.0,2.4,3.2*33
$GPGSV,3,1,10,31,63,016,30,22,56,226,25,32,45,100,26,27,67,355,*79
$GPGSV,3,2,10,14,39,097,18,03,33,307,14,16,26,193,,29,11,081,19*71
$GPGSV,3,3,10,10,07,161,,23,03,302,*7B
$GPRMC,182658.769,A,3526.4698,N,08052.4675,W,30.60,136.52,090316,,,A*41
$GPVTG,136.52,T,,M,30.60,N,56.7,K,N*00
$GPGGA,182659.769,3526.4622,N,08052.4601,W,1,03,2.4,32.9,M,-32.5,M,,0000*5F
$GPGLL,3526.4622,N,08052.4601,W,182659.769,A,A*4E
$GPGSA,A,2,31,32,22,,,,,,,,,,4.0,2.4,3.2*33
$GPRMC,182659.769,A,3526.4622,N,08052.4601,W,30.95,133.91,090316,,,A*42
$GPVTG,133.91,T,,M,30.95,N,57.3,K,N*05
$GPGGA,182700.769,3526.4583,N,08052.4522,W,1,03,2.4,32.9,M,-32.5,M,,0000*58
$GPGLL,3526.4583,N,08052.4522,W,182700.769,A,A*49
$GPGSA,A,2,31,32,22,,,,,,,,,,4.0,2.4,3.2*33
$GPRMC,182700.769,A,3526.4583,N,08052.4522,W,30.94,130.03,090316,,,A*4C
$GPVTG,130.03,T,,M,30.94,N,57.3,K,N*0C
$GPGGA,182701.769,3526.4553,N,08052.4423,W,1,03,2.4,32.9,M,-32.5,M,,0000*54
$GPGLL,3526.4553,N,08052.4423,W,182701.769,A,A*45
$GPGSA,A,2,31,32,22,,,,,,,,,,4.0,2.4,3.2*33
$GPRMC,182701.769,A,3526.4553,N,08052.4423,W,30.98,126.19,090316,,,A*40
$GPVTG,126.19,T,,M,30.98,N,57.4,K,N*0B
$GPGGA,182702.769,3526.4503,N,08052.4345,W,1,03,2.4,32.9,M,-32.5,M,,0000*55
$GPGLL,3526.4503,N,08052.4345,W,182702.769,A,A*44
$GPGSA,A,2,31,32,22,,,,,,,,,,4.0,2.4,3.2*33
$GPRMC,182702.769,A,3526.4503,N,08052.4345,W,30.74,121.99,090316,,,A*4C
$GPVTG,121.99,T,,M,30.74,N,56.9,K,N*0A
$GPGGA,182703.769,3526.4480,N,08052.4240,W,1,03,2.4,32.9,M,-32.5,M,,0000*5A
$GPGLL,3526.4480,N,08052.4240,W,182703.769,A,A*4B
$GPGSA,A,2,31,32,22,,,,,,,,,,4.0,2.4,3.2*33
$GPGSV,3,1,10,31,63,016,30,22,56,226,24,32,45,100,28,27,67,355,*76
$GPGSV,3,2,10,14,39,097,25,03,33,307,15,16,26,193,,29,11,081,19*7E
$GPGSV,3,3,10,10,07,161,,23,03,302,*7B
$GPRMC,182703.769,A,3526.4480,N,08052.4240,W,30.51,119.77,090316,,,A*4F
$GPVTG,119.77,T,,M,30.51,N,56.5,K,N*0A
$GPGGA,182704.769,3526.4430,N,08052.4165,W,1,03,2.4,32.9,M,-32.5,M,,0000*52
$GPGLL,3526.4430,N,08052.4165,W,182704.769,A,A*43
$GPGSA,A,2,31,32,22,,,,,,,,,,4.0,2.4,3.2*33
$GPRMC,182704.769,A,3526.4430,N,08052.4165,W,30.30,115.74,090316,,,A*4F
$GPVTG,115.74,T,,M,30.30,N,56.1,K,N*06
$GPGGA,182705.769,3526.4366,N,08052.4111,W,1,03,2.4,32.9,M,-32.5,M,,0000*54
$GPGLL,3526.4366,N,08052.4111,W,182705.769,A,A*45
$GPGSA,A,2,31,32,22,,,,,,,,,,4.0,2.4,3.2*33
$GPRMC,182705.769,A,3526.4366,N,08052.4111,W,29.99,113.75,090316,,,A*45
$GPVTG,113.75,T,,M,29.99,N,55.5,K,N*0D
$GPGGA,182706.769,3526.4336,N,08052.4016,W,1,03,2.4,32.9,M,-32.5,M,,0000*54
$GPGLL,3526.4336,N,08052.4016,W,182706.769,A,A*45
$GPGSA,A,2,31,32,22,,,,,,,,,,4.0,2.4,3.2*33
$GPRMC,182706.769,A,3526.4336,N,08052.4016,W,29.90,112.59,090316,,,A*43
$GPVTG,112.59,T,,M,29.90,N,55.4,K,N*0A
$GPGGA,182707.769,3526.4306,N,08052.3920,W,1,03,2.4,32.9,M,-32.5,M,,0000*5D
$GPGLL,3526.4306,N,08052.3920,W,182707.769,A,A*4C
$GPGSA,A,2,31,32,22,,,,,,,,,,4.0,2.4,3.2*33
$GPRMC,182707.769,A,3526.4306,N,08052.3920,W,30.20,112.67,090316,,,A*44
$GPVTG,112.67,T,,M,30.20,N,55.9,K,N*09
$GPGGA,182708.769,3526.4273,N,08052.3826,W,1,03,2.4,32.9,M,-32.5,M,,0000*56
$GPGLL,3526.4273,N,08052.3826,W,182708.769,A,A*47
$GPGSA,A,2,31,32,22,,,,,,,,,,4.0,2.4,3.2*33
$GPGSV,3,1,10,31,63,016,29,22,56,226,25,32,45,100,29,27,67,355,*7E
$GPGSV,3,2,10,14,39,097,24,03,33,307,24,16,26,193,,29,11,081,18*7C
$GPGSV,3,3,10,10,07,161,,23,03,302,*7B
$GPRMC,182708.769,A,3526.4273,N,08052.3826,W,30.72,112.14,090316,,,A*4C
$GPVTG,112.14,T,,M,30.72,N,56.9,K,N*09
$GPGGA,182709.769,3526.4242,N,08052.3727,W,1,03,2.4,32.9,M,-32.5,M,,0000*5B
$GPGLL,3526.4242,N,08052.3727,W,182709.769,A,A*4A
$GPGSA,A,2,31,32,22,,,,,,,,,,4.0,2.4,3.2*33
$GPRMC,182709.769,A,3526.4242,N,08052.3727,W,31.80,111.25,090316,,,A*4C
$GPVTG,111.25,T,,M,31.80,N,58.9,K,N*0A
$GPGGA,182710.769,3526.4225,N,08052.3605,W,1,03,2.4,32.9,M,-32.5,M,,0000*53
$GPGLL,3526.4225,N,08052.3605,W,182710.769,A,A*42
$GPGSA,A,2,31,32,22,,,,,,,,,,4.0,2.4,3.2*33
$GPRMC,182710.769,A,3526.4225,N,08052.3605,W,32.70,111.47,090316,,,A*4C
$GPVTG,111.47,T,,M,32.70,N,60.6,K,N*06
$GPGGA,182711.769,3526.4198,N,08052.3492,W,1,03,2.4,32.9,M,-32.5,M,,0000*5B
$GPGLL,3526.4198,N,08052.3492,W,182711.769,A,A*4A
$GPGSA,A,2,31,32,22,,,,,,,,,,4.0,2.4,3.2*33
$GPRMC,182711.769,A,3526.4198,N,08052.3492,W,33.43,111.57,090316,,,A*44
$GPVTG,111.57,T,,M,33.43,N,61.9,K,N*08
$GPGGA,182712.769,3526.4163,N,08052.3386,W,1,03,2.4,32.9,M,-32.5,M,,0000*5E
$GPGLL,3526.4163,N,08052.3386,W,182712.769,A,A*4F
$GPGSA,A,2,31,32,22,,,,,,,,,,4.0,2.4,3.2*33
$GPRMC,182712.769,A,3526.4163,N,08052.3386,W,33.77,111.73,090316,,,A*40
$GPVTG,111.73,T,,M,33.77,N,62.5,K,N*06
$GPGGA,182713.769,3526.4130,N,08052.3278,W,1,03,2.4,32.9,M,-32.5,M,,0000*59
$GPGLL,3526.4130,N,08052.3278,W,182713.769,A,A*48
$GPGSA,A,2,31,32,22,,,,,,,,,,4.0,2.4,3.2*33
$GPGSV,3,1,10,31,63,016,29,22,56,226,26,32,45,100,30,27,67,355,*75
$GPGSV,3,2,10,14,39,097,25,03,33,307,24,16,26,193,,29,11,081,23*75
$GPGSV,3,3,10,10,07,161,,23,03,302,*7B
$GPRMC,182713.769,A,3526.4130,N,08052.3278,W,33.71,112.74,090316,,,A*45
$GPVTG,112.74,T,,M,33.71,N,62.4,K,N*05
$GPGGA,182714.769,3526.4091,N,08052.3176,W,1,03,2.4,32.9,M,-32.5,M,,0000*59
$GPGLL,3526.4091,N,08052.3176,W,182714.769,A,A*48
$GPGSA,A,2,31,32,22,,,,,,,,,,4.0,2.4,3.2*33
$GPRMC,182714.769,A,3526.4091,N,08052.3176,W,33.58,113.50,090316,,,A*49
$GPVTG,113.50,T,,M,33.58,N,62.2,K,N*0F
$GPGGA,182715.769,3526.4050,N,08052.3076,W,1,03,2.4,32.9,M,-32.5,M,,0000*54
$GPGLL,3526.4050,N,08052.3076,W,182715.769,A,A*45
$GPGSA,A,2,31,32,22,,,,,,,,,,4.0,2.4,3.2*33
$GPRMC,182715.769,A,3526.4050,N,08052.3076,W,33.02,116.53,090316,,,A*4D
$GPVTG,116.53,T,,M,33.02,N,61.2,K,N*05
$GPGGA,182716.768,3526.4009,N,08052.2980,W,1,03,2.4,32.9,M,-32.5,M,,0000*5B
$GPGLL,3526.4009,N,08052.2980,W,182716.768,A,A*4A
$GPGSA,A,2,31,32,22,,,,,,,,,,4.0,2.4,3.2*33
$GPRMC,182716.768,A,3526.4009,N,08052.2980,W,31.84,119.88,090316,,,A*47
$GPVTG,119.88,T,,M,31.84,N,59.0,K,N*09
$GPGGA,182717.768,3526.3987,N,08052.2862,W,1,03,2.4,32.9,M,-32.5,M,,0000*5F
$GPGLL,3526.3987,N,08052.2862,W,182717.768,A,A*4E
$GPGSA,A,2,31,32,22,,,,,,,,,,4.0,2.4,3.2*33
$GPRMC,182717.768,A,3526.3987,N,08052.2862,W,31.02,123.84,090316,,,A*48
$GPVTG,123.84,T,,M,31.02,N,57.4,K,N*08
$GPGGA,182718.768,3526.3928,N,08052.2788,W,1,03,2.4,32.9,M,-32.5,M,,0000*5E
$GPGLL,3526.3928,N,08052.2788,W,182718.768,A,A*4F
$GPGSA,A,2,31,32,22,,,,,,,,,,4.0,2.4,3.2*33
$GPGSV,3,1,10,31,63,016,29,22,56,226,25,32,45,100,30,27,67,355,*76
$GPGSV,3,2,10,14,39,097,26,03,33,307,13,16,26,193,,29,11,081,12*70
$GPGSV,3,3,10,10,07,161,,23,03,302,*7B
$GPRMC,182718.768,A,3526.3928,N,08052.2788,W,30.73,127.89,090316,,,A*47
$GPVTG,127.89,T,,M,30.73,N,56.9,K,N*0A
$GPGGA,182719.768,3526.3841,N,08052.2746,W,1,03,2.4,32.9,M,-32.5,M,,0000*53
$GPGLL,3526.3841,N,08052.2746,W,182719.768,A,A*42
$GPGSA,A,2,31,32,22,,,,,,,,,,4.0,2.4,3.2*33
$GPRMC,182719.768,A,3526.3841,N,08052.2746,W,30.98,131.62,090316,,,A*4D
$GPVTG,131.62,T,,M,30.98,N,57.4,K,N*01
$GPGGA,182720.768,3526.3750,N,08052.2707,W,1,03,2.4,32.9,M,-32.5,M,,0000*53
$GPGLL,3526.3750,N,08052.2707,W,182720.768,A,A*42
$GPGSA,A,2,31,32,22,,,,,,,,,,4.0,2.4,3.2*33
$GPRMC,182720.768,A,3526.3750,N,08052.2707,W,31.31,136.13,090316,,,A*4E
$GPVTG,136.13,T,,M,31.31,N,58.0,K,N*09
$GPGGA,182721.768,3526.3739,N,08052.2541,W,1,03,2.4,32.9,M,-32.5,M,,0000*5D
$GPGLL,3526.3739,N,08052.2541,W,182721.768,A,A*4C
$GPGSA,A,2,31,32,22,,,,,,,,,,4.0,2.4,3.2*33
$GPRMC,182721.768,A,3526.3739,N,08052.2541,W,31.92,137.20,090316,,,A*48
$GPVTG,137.20,T,,M,31.92,N,59.1,K,N*01
$GPGGA,182722.768,3526.3653,N,08052.2407,W,1,03,2.4,32.9,M,-32.5,M,,0000*50
$GPGLL,3526.3653,N,08052.2407,W,182722.768,A,A*41
$GPGSA,A,2,31,32,22,,,,,,,,,,4.0,2.4,3.2*33
$GPRMC,182722.768,A,3526.3653,N,08052.2407,W,34.85,142.04,090316,,,A*42
$GPVTG,142.04,T,,M,34.85,N,64.5,K,N*0C
$GPGGA,182723.768,3526.3556,N,08052.2329,W,1,03,2.4,32.9,M,-32.5,M,,0000*5C
$GPGLL,3526.3556,N,08052.2329,W,182723.768,A,A*4D
$GPGSA,A,2,31,32,22,,,,,,,,,,4.0,2.4,3.2*33
$GPGSV,3,1,10,31,63,017,30,22,56,226,25,32,45,101,17,27,67,357,*79
$GPGSV,3,2,10,14,39,098,26,03,33,307,17,16,27,193,17,29,11,081,19*77
$GPGSV,3,3,10,10,06,161,,23,04,302,*7D
$GPRMC,182723.768,A,3526.3556,N,08052.2329,W,34.76,143.92,090316,,,A*4C
$GPVTG,143.92,T,,M,34.76,N,64.4,K,N*0F
$GPGGA,182724.768,3526.3490,N,08052.2379,W,1,03,2.4,32.9,M,-32.5,M,,0000*55
$GPGLL,3526.3490,N,08052.2379,W,182724.768,A,A*44
$GPGSA,A,2,31,32,22,,,,,,,,,,4.0,2.4,3.2*33
$GPRMC,182724.768,A,3526.3490,N,08052.2379,W,32.66,150.67,090316,,,A*4A
$GPVTG,150.67,T,,M,32.66,N,60.5,K,N*05
$GPGGA,182725.768,3526.3485,N,08052.2304,W,1,03,2.4,32.9,M,-32.5,M,,0000*5A
$GPGLL,3526.3485,N,08052.2304,W,182725.768,A,A*4B
$GPGSA,A,2,31,32,22,,,,,,,,,,4.0,2.4,3.2*33
$GPRMC,182725.768,A,3526.3485,N,08052.2304,W,34.23,157.79,090316,,,A*4A
$GPVTG,157.79,T,,M,34.23,N,63.4,K,N*08
$GPGGA,182726.769,,,,,0,00,,,M,0.0,M,,0000*56
$GPGLL,,,,,182726.769,V,N*7A
$GPGSA,A,1,,,,,,,,,,,,,,,*1E
$GPRMC,182726.769,V,,,,,,,090316,,,N*40
$GPVTG,,T,,M,,N,,K,N*2C
$GPGGA,182727.769,,,,,0,00,,,M,0.0,M,,0000*57
$GPGLL,,,,,182727.769,V,N*7B
$GPGSA,A,1,,,,,,,,,,,,,,,*1E
$GPRMC,182727.769,V,,,,,,,090316,,,N*41
$GPVTG,,T,,M,,N,,K,N*2C
$GPGGA,182728.769,3526.3132,N,08052.2230,W,1,03,2.4,32.9,M,-32.5,M,,0000*59
$GPGLL,3526.3132,N,08052.2230,W,182728.769,A,A*48
$GPGSA,A,2,31,32,22,,,,,,,,,,3.9,2.4,3.2*3D
$GPGSV,3,1,10,31,63,017,32,22,56,226,16,32,45,101,30,27,67,357,*7E
$GPGSV,3,2,10,14,39,098,26,03,33,307,18,16,27,193,16,29,11,081,18*78
$GPGSV,3,3,10,10,06,161,,23,04,302,*7D
$GPRMC,182728.769,A,3526.3132,N,08052.2230,W,34.11,170.65,090316,,,A*40
$GPVTG,170.65,T,,M,34.11,N,63.2,K,N*07
$GPGGA,182729.769,3526.3052,N,08052.2220,W,1,03,2.4,32.9,M,-32.5,M,,0000*5E
$GPGLL,3526.3052,N,08052.2220,W,182729.769,A,A*4F
$GPGSA,A,2,31,32,22,,,,,,,,,,3.9,2.4,3.2*3D
$GPRMC,182729.769,A,3526.3052,N,08052.2220,W,33.68,172.14,090316,,,A*4A
$GPVTG,172.14,T,,M,33.68,N,62.4,K,N*0D
$GPGGA,182730.769,3526.2959,N,08052.2216,W,1,03,2.4,32.9,M,-32.5,M,,0000*50
$GPGLL,3526.2959,N,08052.2216,W,182730.769,A,A*41
$GPGSA,A,2,31,32,22,,,,,,,,,,3.9,2.4,3.2*3D
$GPRMC,182730.769,A,3526.2959,N,08052.2216,W,32.44,170.81,090316,,,A*45
$GPVTG,170.81,T,,M,32.44,N,60.1,K,N*0B
$GPGGA,182731.769,3526.2842,N,08052.2239,W,1,03,2.4,32.9,M,-32.5,M,,0000*57
$GPGLL,3526.2842,N,08052.2239,W,182731.769,A,A*46
$GPGSA,A,2,31,32,22,,,,,,,,,,3.9,2.4,3.2*3D
$GPRMC,182731.769,A,3526.2842,N,08052.2239,W,33.50,174.52,090316,,,A*4C
$GPVTG,174.52,T,,M,33.50,N,62.0,K,N*06
$GPGGA,182732.769,3526.2776,N,08052.2200,W,1,03,2.4,32.9,M,-32.5,M,,0000*56
$GPGLL,3526.2776,N,08052.2200,W,182732.769,A,A*47
$GPGSA,A,2,31,32,22,,,,,,,,,,3.9,2.4,3.2*3D
$GPRMC,182732.769,A,3526.2776,N,08052.2200,W,33.92,175.52,090316,,,A*42
$GPVTG,175.52,T,,M,33.92,N,62.8,K,N*01
$GPGGA,182733.769,3526.2663,N,08052.2263,W,1,03,2.4,32.9,M,-32.5,M,,0000*57
$GPGLL,3526.2663,N,08052.2263,W,182733.769,A,A*46
$GPGSA,A,2,31,32,22,,,,,,,,,,3.9,2.4,3.2*3D
$GPGSV,3,1,10,31,63,017,32,22,56,226,25,32,45,101,28,27,67,357,*77
$GPGSV,3,2,10,14,39,098,25,03,33,307,24,16,27,193,17,29,11,081,16*7B
$GPGSV,3,3,10,10,06,161,,23,04,302,*7D
$GPRMC,182733.769,A,3526.2663,N,08052.2263,W,34.87,176.56,090316,,,A*47
$GPVTG,176.56,T,,M,34.87,N,64.6,K,N*0D
$GPGGA,182734.769,3526.2591,N,08052.2203,W,1,03,2.4,32.9,M,-32.5,M,,0000*58
$GPGLL,3526.2591,N,08052.2203,W,182734.769,A,A*49
$GPGSA,A,2,31,32,22,,,,,,,,,,3.9,2.4,3.2*3D
$GPRMC,182734.769,A,3526.2591,N,08052.2203,W,34.14,176.16,090316,,,A*46
$GPVTG,176.16,T,,M,34.14,N,63.2,K,N*00
$GPGGA,182735.769,3526.2473,N,08052.2226,W,1,03,2.4,32.9,M,-32.5,M,,0000*53
$GPGLL,3526.2473,N,08052.2226,W,182735.769,A,A*42
$GPGSA,A,2,31,32,22,,,,,,,,,,3.9,2.4,3.2*3D
$GPRMC,182735.769,A,3526.2473,N,08052.2226,W,34.23,176.21,090316,,,A*4D
$GPVTG,176.21,T,,M,34.23,N,63.4,K,N*06
$GPGGA,182736.769,3526.2380,N,08052.2204,W,1,03,2.4,32.9,M,-32.5,M,,0000*5B
$GPGLL,3526.2380,N,08052.2204,W,182736.769,A,A*4A
$GPGSA,A,2,31,32,22,,,,,,,,,,3.9,2.4,3.2*3D
$GPRMC,182736.769,A,3526.2380,N,08052.2204,W,34.96,176.97,090316,,,A*46
$GPVTG,176.97,T,,M,34.96,N,64.7,K,N*01
$GPGGA,182737.769,3526.2291,N,08052.2186,W,1,03,2.4,32.9,M,-32.5,M,,0000*52
$GPGLL,3526.2291,N,08052.2186,W,182737.769,A,A*43
$GPGSA,A,2,31,32,22,,,,,,,,,,3.9,2.4,3.2*3D
$GPRMC,182737.769,A,3526.2291,N,08052.2186,W,35.14,176.29,090316,,,A*41
$GPVTG,176.29,T,,M,35.14,N,65.1,K,N*08
$GPGGA,182738.769,3526.2207,N,08052.2164,W,1,03,2.4,32.9,M,-32.5,M,,0000*5E
$GPGLL,3526.2207,N,08052.2164,W,182738.769,A,A*4F
$GPGSA,A,2,31,32,22,,,,,,,,,,3.9,2.4,3.2*3D
$GPGSV,3,1,10,31,63,017,32,22,56,226,25,32,45,101,31,27,67,357,*7F
$GPGSV,3,2,10,14,39,098,28,03,33,307,25,16,27,193,16,29,11,081,*71
$GPGSV,3,3,10,10,06,161,19,23,04,302,*75
$GPRMC,182738.769,A,3526.2207,N,08052.2164,W,35.52,176.49,090316,,,A*49
$GPVTG,176.49,T,,M,35.52,N,65.8,K,N*05
$GPGGA,182739.769,3526.2110,N,08052.2153,W,1,03,2.4,32.9,M,-32.5,M,,0000*5E
$GPGLL,3526.2110,N,08052.2153,W,182739.769,A,A*4F
$GPGSA,A,2,31,32,22,,,,,,,,,,3.9,2.4,3.2*3D
$GPRMC,182739.769,A,3526.2110,N,08052.2153,W,35.32,176.18,090316,,,A*4B
$GPVTG,176.18,T,,M,35.32,N,65.4,K,N*0B
$GPGGA,182740.769,3526.2016,N,08052.2139,W,1,03,2.4,32.9,M,-32.5,M,,0000*5B
$GPGLL,3526.2016,N,08052.2139,W,182740.769,A,A*4A
$GPGSA,A,2,31,32,22,,,,,,,,,,3.9,2.4,3.2*3D
$GPRMC,182740.769,A,3526.2016,N,08052.2139,W,34.95,176.12,090316,,,A*48
$GPVTG,176.12,T,,M,34.95,N,64.7,K,N*0F
$GPGGA,182741.769,3526.1936,N,08052.2113,W,1,03,2.4,32.9,M,-32.5,M,,0000*5A
$GPGLL,3526.1936,N,08052.2113,W,182741.769,A,A*4B
$GPGSA,A,2,31,32,22,,,,,,,,,,3.9,2.4,3.2*3D
$GPRMC,182741.769,A,3526.1936,N,08052.2113,W,35.25,177.77,090316,,,A*41
$GPVTG,177.77,T,,M,35.25,N,65.3,K,N*02
$GPGGA,182742.769,3526.1800,N,08052.2158,W,1,03,2.4,32.9,M,-32.5,M,,0000*52
$GPGLL,3526.1800,N,08052.2158,W,182742.769,A,A*43
$GPGSA,A,2,31,32,22,,,,,,,,,,3.9,2.4,3.2*3D
$GPRMC,182742.769,A,3526.1800,N,08052.2158,W,34.99,178.69,090316,,,A*4F
$GPVTG,178.69,T,,M,34.99,N,64.8,K,N*0E
$GPGGA,182743.769,3526.1689,N,08052.2177,W,1,03,2.4,32.9,M,-32.5,M,,0000*51
$GPGLL,3526.1689,N,08052.2177,W,182743.769,A,A*40
$GPGSA,A,2,31,32,22,,,,,,,,,,3.9,2.4,3.2*3D
$GPGSV,3,1,10,31,63,017,32,22,56,226,25,32,45,101,32,27,67,357,*7C
$GPGSV,3,2,10,14,39,098,29,03,33,307,21,16,27,193,17,29,11,081,*75
$GPGSV,3,3,10,10,06,161,10,23,04,302,*7C
$GPRMC,182743.769,A,3526.1689,N,08052.2177,W,34.87,179.99,090316,,,A*4D
$GPVTG,179.99,T,,M,34.87,N,64.6,K,N*01
$GPGGA,182744.769,3526.1603,N,08052.2168,W,1,03,2.4,32.9,M,-32.5,M,,0000*5A
$GPGLL,3526.1603,N,08052.2168,W,182744.769,A,A*4B
$GPGSA,A,2,31,32,22,,,,,,,,,,3.9,2.4,3.2*3D
$GPRMC,182744.769,A,3526.1603,N,08052.2168,W,35.98,182.78,090316,,,A*42
$GPVTG,182.78,T,,M,35.98,N,66.6,K,N*07
$GPGGA,182745.769,3526.1505,N,08052.2178,W,1,03,2.4,32.9,M,-32.5,M,,0000*5F
$GPGLL,3526.1505,N,08052.2178,W,182745.769,A,A*4E
$GPGSA,A,2,31,32,22,,,,,,,,,,3.9,2.4,3.2*3D
$GPRMC,182745.769,A,3526.1505,N,08052.2178,W,35.19,183.45,090316,,,A*41
$GPVTG,183.45,T,,M,35.19,N,65.2,K,N*06
$GPGGA,182746.769,3526.1404,N,08052.2194,W,1,03,2.4,32.9,M,-32.5,M,,0000*5E
$GPGLL,3526.1404,N,08052.2194,W,182746.769,A,A*4F
$GPGSA,A,2,31,32,22,,,,,,,,,,3.9,2.4,3.2*3D
$GPRMC,182746.769,A,3526.1404,N,08052.2194,W,35.08,184.25,090316,,,A*41
$GPVTG,184.25,T,,M,35.08,N,65.0,K,N*05
$GPGGA,182747.769,3526.1308,N,08052.2207,W,1,03,2.4,32.9,M,-32.5,M,,0000*5D
$GPGLL,3526.1308,N,08052.2207,W,182747.769,A,A*4C
$GPGSA,A,2,31,32,22,,,,,,,,,,3.9,2.4,3.2*3D
$GPRMC,182747.769,A,3526.1308,N,08052.2207,W,35.11,186.34,090316,,,A*48
$GPVTG,186.34,T,,M,35.11,N,65.0,K,N*0F
$GPGGA,182748.769,3526.1201,N,08052.2188,W,1,03,2.4,32.9,M,-32.5,M,,0000*5E
$GPGLL,3526.1201,N,08052.2188,W,182748.769,A,A*4F
$GPGSA,A,2,31,32,22,,,,,,,,,,3.9,2.4,3.2*3D
$GPGSV,3,1,10,31,63,017,32,22,56,226,15,32,45,101,25,27,67,357,*79
$GPGSV,3,2,10,14,39,098,30,03,33,307,26,16,27,193,19,29,11,081,*74
$GPGSV,3,3,10,10,06,161,,23,04,302,*7D
$GPRMC,182748.769,A,3526.1201,N,08052.2188,W,35.52,189.27,090316,,,A*41
$GPVTG,189.27,T,,M,35.52,N,65.8,K,N*0D
$GPGGA,182749.769,3526.1151,N,08052.2199,W,1,03,2.4,32.9,M,-32.5,M,,0000*59
$GPGLL,3526.1151,N,08052.2199,W,182749.769,A,A*48
$GPGSA,A,2,31,32,22,,,,,,,,,,3.9,2.4,3.2*3D
$GPRMC,182749.769,A,3526.1151,N,08052.2199,W,36.51,188.04,090316,,,A*46
$GPVTG,188.04,T,,M,36.51,N,67.6,K,N*01
$GPGGA,182750.769,3526.1024,N,08052.2264,W,1,03,2.4,32.9,M,-32.5,M,,0000*53
$GPGLL,3526.1024,N,08052.2264,W,182750.769,A,A*42
$GPGSA,A,2,31,32,22,,,,,,,,,,3.9,2.4,3.2*3D
$GPRMC,182750.769,A,3526.1024,N,08052.2264,W,35.82,194.80,090316,,,A*40
$GPVTG,194.80,T,,M,35.82,N,66.3,K,N*09
$GPGGA,182751.769,3526.0897,N,08052.2332,W,1,03,2.4,32.9,M,-32.5,M,,0000*51
$GPGLL,3526.0897,N,08052.2332,W,182751.769,A,A*40
$GPGSA,A,2,31,32,22,,,,,,,,,,3.9,2.4,3.2*3D
$GPRMC,182751.769,A,3526.0897,N,08052.2332,W,35.49,201.73,090316,,,A*46
$GPVTG,201.73,T,,M,35.49,N,65.7,K,N*0A
$GPGGA,182752.769,3526.0812,N,08052.2329,W,1,03,2.4,32.9,M,-32.5,M,,0000*55
$GPGLL,3526.0812,N,08052.2329,W,182752.769,A,A*44
$GPGSA,A,2,31,32,22,,,,,,,,,,3.9,2.4,3.2*3D
$GPRMC,182752.769,A,3526.0812,N,08052.2329,W,35.68,200.42,090316,,,A*42
$GPVTG,200.42,T,,M,35.68,N,66.1,K,N*0F
$GPGGA,182753.769,3526.0748,N,08052.2403,W,1,03,2.4,32.9,M,-32.5,M,,0000*5B
$GPGLL,3526.0748,N,08052.2403,W,182753.769,A,A*4A
$GPGSA,A,2,31,32,22,,,,,,,,,,3.9,2.4,3.2*3D
$GPGSV,3,1,10,31,63,017,28,22,56,226,16,32,45,101,13,27,67,357,*74
$GPGSV,3,2,10,14,39,098,25,03,33,307,18,16,27,193,17,29,11,081,*73
$GPGSV,3,3,10,10,06,161,23,23,04,302,*7C
$GPRMC,182753.769,A,3526.0748,N,08052.2403,W,36.53,199.46,090316,,,A*40
$GPVTG,199.46,T,,M,36.53,N,67.7,K,N*04
$GPGGA,182754.769,3526.0618,N,08052.2393,W,1,03,2.4,32.9,M,-32.5,M,,0000*56
$GPGLL,3526.0618,N,08052.2393,W,182754.769,A,A*47
$GPGSA,A,2,31,32,22,,,,,,,,,,3.9,2.4,3.2*3D
$GPRMC,182754.769,A,3526.0618,N,08052.2393,W,36.01,197.32,090316,,,A*47
$GPVTG,197.32,T,,M,36.01,N,66.7,K,N*0F
$GPGGA,182755.769,3526.0573,N,08052.2450,W,1,03,2.4,32.9,M,-32.5,M,,0000*51
$GPGLL,3526.0573,N,08052.2450,W,182755.769,A,A*40
$GPGSA,A,2,31,32,22,,,,,,,,,,3.9,2.4,3.2*3D
$GPRMC,182755.769,A,3526.0573,N,08052.2450,W,35.24,200.68,090316,,,A*46
$GPVTG,200.68,T,,M,35.24,N,65.3,K,N*0E
$GPGGA,182756.769,3526.0488,N,08052.2488,W,1,03,2.4,32.9,M,-32.5,M,,0000*52
$GPGLL,3526.0488,N,08052.2488,W,182756.769,A,A*43
$GPGSA,A,2,31,32,22,,,,,,,,,,3.9,2.4,3.2*3D
$GPRMC,182756.769,A,3526.0488,N,08052.2488,W,34.24,203.73,090316,,,A*4D
$GPVTG,203.73,T,,M,34.24,N,63.4,K,N*07
$GPGGA,182757.769,3526.0409,N,08052.2483,W,1,03,2.4,32.9,M,-32.5,M,,0000*51
$GPGLL,3526.0409,N,08052.2483,W,182757.769,A,A*40
$GPGSA,A,2,31,32,22,,,,,,,,,,3.9,2.4,3.2*3D
$GPRMC,182757.769,A,3526.0409,N,08052.2483,W,34.16,203.98,090316,,,A*4A
$GPVTG,203.98,T,,M,34.16,N,63.3,K,N*04
$GPGGA,182758.769,3526.0336,N,08052.2544,W,1,03,2.4,32.9,M,-32.5,M,,0000*5F
$GPGLL,3526.0336,N,08052.2544,W,182758.769,A,A*4E
$GPGSA,A,2,31,32,22,,,,,,,,,,3.9,2.4,3.2*3D
$GPGSV,3,1,10,31,63,017,27,22,56,226,24,32,45,101,25,27,67,357,*7F
$GPGSV,3,2,10,14,39,098,26,03,33,307,18,16,27,193,16,29,11,081,*71
$GPGSV,3,3,10,10,06,161,11,23,04,302,*7D
$GPRMC,182758.769,A,3526.0336,N,08052.2544,W,32.71,207.00,090316,,,A*46
$GPVTG,207.00,T,,M,32.71,N,60.6,K,N*00
$GPGGA,182759.768,3526.0284,N,08052.2592,W,1,03,2.4,32.9,M,-32.5,M,,0000*5C
$GPGLL,3526.0284,N,08052.2592,W,182759.768,A,A*4D
$GPGSA,A,2,31,32,22,,,,,,,,,,3.9,2.4,3.2*3D
$GPRMC,182759.768,A,3526.0284,N,08052.2592,W,30.79,206.48,090316,,,A*42
$GPVTG,206.48,T,,M,30.79,N,57.0,K,N*05
$GPGGA,182800.768,3526.0177,N,08052.2689,W,1,03,2.4,32.9,M,-32.5,M,,0000*59
$GPGLL,3526.0177,N,08052.2689,W,182800.768,A,A*48
$GPGSA,A,2,31,32,22,,,,,,,,,,3.9,2.4,3.2*3D
$GPRMC,182800.768,A,3526.0177,N,08052.2689,W,30.37,208.25,090316,,,A*48
$GPVTG,208.25,T,,M,30.37,N,56.2,K,N*09
$GPGGA,182801.768,3526.0111,N,08052.2715,W,1,03,2.4,32.9,M,-32.5,M,,0000*5C
$GPGLL,3526.0111,N,08052.2715,W,182801.768,A,A*4D
$GPGSA,A,2,31,32,22,,,,,,,,,,3.9,2.4,3.2*3D
$GPRMC,182801.768,A,3526.0111,N,08052.2715,W,28.61,207.23,090316,,,A*4E
$GPVTG,207.23,T,,M,28.61,N,53.0,K,N*0D
$GPGGA,182802.767,3526.0010,N,08052.2773,W,1,03,2.4,32.9,M,-32.5,M,,0000*50
$GPGLL,3526.0010,N,08052.2773,W,182802.767,A,A*41
$GPGSA,A,2,31,32,22,,,,,,,,,,3.9,2.4,3.2*3D
$GPRMC,182802.767,A,3526.0010,N,08052.2773,W,29.40,206.72,090316,,,A*45
$GPVTG,206.72,T,,M,29.40,N,54.4,K,N*09
$GPGGA,182803.768,3525.9926,N,08052.2814,W,1,03,2.4,32.9,M,-32.5,M,,0000*56
$GPGLL,3525.9926,N,08052.2814,W,182803.768,A,A*47
$GPGSA,A,2,31,32,22,,,,,,,,,,3.9,2.4,3.2*3D
$GPGSV,3,1,10,31,63,017,26,22,56,226,23,32,45,101,31,27,67,357,*7C
$GPGSV,3,2,10,14,39,098,30,03,33,307,17,16,27,193,18,29,11,081,*77
$GPGSV,3,3,10,10,06,161,,23,04,302,*7D
$GPRMC,182803.768,A,3525.9926,N,08052.2814,W,30.13,207.26,090316,,,A*4D
$GPVTG,207.26,T,,M,30.13,N,55.8,K,N*0A
$GPGGA,182804.768,3525.9841,N,08052.2869,W,1,03,2.4,32.9,M,-32.5,M,,0000*5B
$GPGLL,3525.9841,N,08052.2869,W,182804.768,A,A*4A
$GPGSA,A,2,31,32,22,,,,,,,,,,3.9,2.4,3.2*3D
$GPRMC,182804.768,A,3525.9841,N,08052.2869,W,30.19,207.53,090316,,,A*48
$GPVTG,207.53,T,,M,30.19,N,55.9,K,N*03
$GPGGA,182805.768,3525.9825,N,08052.2876,W,1,03,2.4,32.9,M,-32.5,M,,0000*56
$GPGLL,3525.9825,N,08052.2876,W,182805.768,A,A*47
$GPGSA,A,2,31,32,22,,,,,,,,,,3.9,2.4,3.2*3D
$GPRMC,182805.768,A,3525.9825,N,08052.2876,W,32.42,208.42,090316,,,A*46
$GPVTG,208.42,T,,M,32.42,N,60.0,K,N*0F
$GPGGA,182806.768,3525.9689,N,08052.2963,W,1,03,2.4,32.9,M,-32.5,M,,0000*58
$GPGLL,3525.9689,N,08052.2963,W,182806.768,A,A*49
$GPGSA,A,2,31,32,22,,,,,,,,,,3.9,2.4,3.2*3D
$GPRMC,182806.768,A,3525.9689,N,08052.2963,W,31.61,209.78,090316,,,A*42
$GPVTG,209.78,T,,M,31.61,N,58.5,K,N*0B
$GPGGA,182807.768,3525.9642,N,08052.3044,W,1,03,2.4,32.9,M,-32.5,M,,0000*53
$GPGLL,3525.9642,N,08052.3044,W,182807.768,A,A*42
$GPGSA,A,2,31,32,22,,,,,,,,,,3.9,2.4,3.2*3D
$GPRMC,182807.768,A,3525.9642,N,08052.3044,W,31.66,213.13,090316,,,A*48
$GPVTG,213.13,T,,M,31.66,N,58.6,K,N*09
$GPGGA,182808.768,3525.9590,N,08052.3063,W,1,03,2.4,32.9,M,-32.5,M,,0000*55
$GPGLL,3525.9590,N,08052.3063,W,182808.768,A,A*44
$GPGSA,A,2,31,32,22,,,,,,,,,,3.9,2.4,3.2*3D
$GPGSV,3,1,10,31,63,017,25,22,56,226,24,32,45,101,32,27,67,357,*7B
$GPGSV,3,2,10,14,39,098,31,03,33,307,17,16,27,193,23,29,11,081,18*77
$GPGSV,3,3,10,10,06,161,,23,04,302,*7D
$GPRMC,182808.768,A,3525.9590,N,08052.3063,W,30.70,215.91,090316,,,A*44
$GPVTG,215.91,T,,M,30.70,N,56.9,K,N*02
$GPGGA,182809.768,3525.9554,N,08052.3129,W,1,03,2.4,32.9,M,-32.5,M,,0000*53
$GPGLL,3525.9554,N,08052.3129,W,182809.768,A,A*42
$GPGSA,A,2,31,32,22,,,,,,,,,,3.9,2.4,3.2*3D
$GPRMC,182809.768,A,3525.9554,N,08052.3129,W,30.04,220.66,090316,,,A*4F
$GPVTG,220.66,T,,M,30.04,N,55.6,K,N*03
$GPGGA,182810.768,3525.9510,N,08052.3218,W,1,03,2.4,32.9,M,-32.5,M,,0000*5A
$GPGLL,3525.9510,N,08052.3218,W,182810.768,A,A*4B
$GPGSA,A,2,31,32,22,,,,,,,,,,3.9,2.4,3.2*3D
$GPRMC,182810.768,A,3525.9510,N,08052.3218,W,30.85,226.70,090316,,,A*4E
$GPVTG,226.70,T,,M,30.85,N,57.1,K,N*0E
$GPGGA,182811.768,3525.9434,N,08052.3347,W,1,03,2.4,32.9,M,-32.5,M,,0000*57
$GPGLL,3525.9434,N,08052.3347,W,182811.768,A,A*46
$GPGSA,A,2,31,32,22,,,,,,,,,,3.9,2.4,3.2*3D
$GPRMC,182811.768,A,3525.9434,N,08052.3347,W,31.03,231.59,090316,,,A*41
$GPVTG,231.59,T,,M,31.03,N,57.5,K,N*08
$GPGGA,182812.768,3525.9328,N,08052.3441,W,1,03,2.4,32.9,M,-32.5,M,,0000*5F
$GPGLL,3525.9328,N,08052.3441,W,182812.768,A,A*4E
$GPGSA,A,2,31,32,22,,,,,,,,,,3.9,2.4,3.2*3D
$GPRMC,182812.768,A,3525.9328,N,08052.3441,W,30.32,242.61,090316,,,A*45
$GPVTG,242.61,T,,M,30.32,N,56.2,K,N*02
$GPGGA,182813.768,3525.9314,N,08052.3511,W,1,03,2.4,32.9,M,-32.5,M,,0000*55
$GPGLL,3525.9314,N,08052.3511,W,182813.768,A,A*44
$GPGSA,A,2,31,32,22,,,,,,,,,,3.9,2.4,3.2*3D
$GPGSV,3,1,10,31,63,017,25,22,56,226,20,32,45,101,27,27,67,357,*7B
$GPGSV,3,2,10,14,39,098,19,03,33,307,18,16,27,193,18,29,11,081,16*74
$GPGSV,3,3,10,10,06,161,,23,04,302,*7D
$GPRMC,182813.768,A,3525.9314,N,08052.3511,W,29.91,252.01,090316,,,A*49
$GPVTG,252.01,T,,M,29.91,N,55.4,K,N*01
$GPGGA,182814.768,3525.9382,N,08052.3656,W,1,03,2.4,32.9,M,-32.5,M,,0000*5D
$GPGLL,3525.9382,N,08052.3656,W,182814.768,A,A*4C
$GPGSA,A,2,31,32,22,,,,,,,,,,3.9,2.4,3.2*3D
$GPRMC,182814.768,A,3525.9382,N,08052.3656,W,29.30,260.53,090316,,,A*4C
$GPVTG,260.53,T,,M,29.30,N,54.3,K,N*0A
$GPGGA,182815.768,3525.9269,N,08052.3710,W,1,03,2.4,32.9,M,-32.5,M,,0000*5B
$GPGLL,3525.9269,N,08052.3710,W,182815.768,A,A*4A
$GPGSA,A,2,31,32,22,,,,,,,,,,3.9,2.4,3.2*3D
$GPRMC,182815.768,A,3525.9269,N,08052.3710,W,30.52,267.01,090316,,,A*46
$GPVTG,267.01,T,,M,30.52,N,56.5,K,N*02
$GPGGA,182816.768,3525.9287,N,08052.3832,W,1,03,2.4,32.9,M,-32.5,M,,0000*57
$GPGLL,3525.9287,N,08052.3832,W,182816.768,A,A*46
$GPGSA,A,2,31,32,22,,,,,,,,,,3.9,2.4,3.2*3D
$GPRMC,182816.768,A,3525.9287,N,08052.3832,W,30.56,264.39,090316,,,A*46
$GPVTG,264.39,T,,M,30.56,N,56.6,K,N*0D
$GPGGA,182817.768,3525.9311,N,08052.3935,W,1,03,2.4,32.9,M,-32.5,M,,0000*5E
$GPGLL,3525.9311,N,08052.3935,W,182817.768,A,A*4F
$GPGSA,A,2,31,32,22,,,,,,,,,,3.9,2.4,3.2*3D
$GPRMC,182817.768,A,3525.9311,N,08052.3935,W,29.56,264.94,090316,,,A*40
$GPVTG,264.94,T,,M,29.56,N,54.7,K,N*01
$GPGGA,182818.768,3525.9266,N,08052.3980,W,1,03,2.4,32.9,M,-32.5,M,,0000*5E
$GPGLL,3525.9266,N,08052.3980,W,182818.768,A,A*4F
$GPGSA,A,2,31,32,22,,,,,,,,,,3.9,2.4,3.2*3D
$GPGSV,3,1,10,31,63,017,24,22,56,226,22,32,45,101,30,27,67,357,*7E
$GPGSV,3,2,10,14,39,098,18,03,33,307,18,16,27,193,24,29,11,081,15*79
$GPGSV,3,3,10,10,06,161,,23,04,302,*7D
$GPRMC,182818.768,A,3525.9266,N,08052.3980,W,27.03,261.22,090316,,,A*46
$GPVTG,261.22,T,,M,27.03,N,50.1,K,N*05
$GPGGA,182819.768,3525.9227,N,08052.4100,W,1,03,2.4,32.9,M,-32.5,M,,0000*5D
$GPGLL,3525.9227,N,08052.4100,W,182819.768,A,A*4C
$GPGSA,A,2,31,32,22,,,,,,,,,,3.9,2.4,3.2*3D
$GPRMC,182819.768,A,3525.9227,N,08052.4100,W,27.89,254.58,090316,,,A*4C
$GPVTG,254.58,T,,M,27.89,N,51.7,K,N*0B
$GPGGA,182820.768,3525.9250,N,08052.4182,W,1,03,2.4,32.9,M,-32.5,M,,0000*5D
$GPGLL,3525.9250,N,08052.4182,W,182820.768,A,A*4C
$GPGSA,A,2,31,32,22,,,,,,,,,,3.9,2.4,3.2*3D
$GPRMC,182820.768,A,3525.9250,N,08052.4182,W,27.17,240.11,090316,,,A*43
$GPVTG,240.11,T,,M,27.17,N,50.3,K,N*01
$GPGGA,182821.768,3525.9181,N,08052.4270,W,1,03,2.4,32.9,M,-32.5,M,,0000*5D
$GPGLL,3525.9181,N,08052.4270,W,182821.768,A,A*4C
$GPGSA,A,2,31,32,22,,,,,,,,,,3.9,2.4,3.2*3D
$GPRMC,182821.768,A,3525.9181,N,08052.4270,W,27.43,223.25,090316,,,A*40
$GPVTG,223.25,T,,M,27.43,N,50.8,K,N*09
$GPGGA,182822.768,3525.9146,N,08052.4328,W,1,03,2.3,32.9,M,-32.5,M,,0000*5E
$GPGLL,3525.9146,N,08052.4328,W,182822.768,A,A*48
$GPGSA,A,2,31,32,22,,,,,,,,,,3.9,2.3,3.2*3A
$GPRMC,182822.768,A,3525.9146,N,08052.4328,W,29.60,213.77,090316,,,A*4F
$GPVTG,213.77,T,,M,29.60,N,54.8,K,N*06
$GPGGA,182823.768,3525.9059,N,08052.4323,W,1,03,2.3,32.9,M,-32.5,M,,0000*5B
$GPGLL,3525.9059,N,08052.4323,W,182823.768,A,A*4D
$GPGSA,A,2,31,32,22,,,,,,,,,,3.9,2.3,3.2*3A
$GPGSV,3,1,10,31,63,017,17,22,56,226,22,32,45,101,36,27,67,357,*78
$GPGSV,3,2,10,14,39,098,27,03,33,307,17,16,27,193,21,29,11,081,14*7E
$GPGSV,3,3,10,10,06,161,,23,04,302,*7D
$GPRMC,182823.768,A,3525.9059,N,08052.4323,W,27.32,209.02,090316,,,A*4A
$GPVTG,209.02,T,,M,27.32,N,50.6,K,N*0C
$GPGGA,182824.768,3525.9018,N,08052.4337,W,1,03,2.3,32.9,M,-32.5,M,,0000*5C
$GPGLL,3525.9018,N,08052.4337,W,182824.768,A,A*4A
$GPGSA,A,2,31,32,22,,,,,,,,,,3.9,2.3,3.2*3A
$GPRMC,182824.768,A,3525.9018,N,08052.4337,W,28.76,208.06,090316,,,A*47
$GPVTG,208.06,T,,M,28.76,N,53.3,K,N*00
$GPGGA,182825.768,3525.8882,N,08052.4426,W,1,03,2.3,32.9,M,-32.5,M,,0000*50
$GPGLL,3525.8882,N,08052.4426,W,182825.768,A,A*46
$GPGSA,A,2,31,32,22,,,,,,,,,,3.9,2.3,3.2*3A
$GPRMC,182825.768,A,3525.8882,N,08052.4426,W,29.34,204.51,090316,,,A*42
$GPVTG,204.51,T,,M,29.34,N,54.3,K,N*0E
$GPGGA,182826.768,3525.8758,N,08052.4415,W,1,03,2.3,32.9,M,-32.5,M,,0000*5B
$GPGLL,3525.8758,N,08052.4415,W,182826.768,A,A*4D
$GPGSA,A,2,31,32,22,,,,,,,,,,3.9,2.3,3.2*3A
$GPRMC,182826.768,A,3525.8758,N,08052.4415,W,30.89,201.25,090316,,,A*41
$GPVTG,201.25,T,,M,30.89,N,57.2,K,N*04
$GPGGA,182827.768,3525.8698,N,08052.4529,W,1,03,2.3,32.9,M,-32.5,M,,0000*59
$GPGLL,3525.8698,N,08052.4529,W,182827.768,A,A*4F
$GPGSA,A,2,31,32,22,,,,,,,,,,3.9,2.3,3.2*3A
$GPRMC,182827.768,A,3525.8698,N,08052.4529,W,33.14,202.12,090316,,,A*43
$GPVTG,202.12,T,,M,33.14,N,61.4,K,N*07
$GPGGA,182828.768,3525.8690,N,08052.4530,W,1,03,2.3,32.9,M,-32.5,M,,0000*56
$GPGLL,3525.8690,N,08052.4530,W,182828.768,A,A*40
$GPGSA,A,2,31,32,22,,,,,,,,,,3.9,2.3,3.2*3A
$GPGSV,3,1,10,31,63,017,17,22,56,226,19,32,45,101,36,27,67,357,*70
$GPGSV,3,2,10,14,39,098,30,03,33,307,,16,27,193,14,29,11,081,13*7F
$GPGSV,3,3,10,10,06,161,,23,04,302,*7D
$GPRMC,182828.768,A,3525.8690,N,08052.4530,W,34.36,203.72,090316,,,A*4C
$GPVTG,203.72,T,,M,34.36,N,63.6,K,N*07
$GPGGA,182829.768,3525.8617,N,08052.4536,W,1,03,2.3,32.9,M,-32.5,M,,0000*5E
$GPGLL,3525.8617,N,08052.4536,W,182829.768,A,A*48
$GPGSA,A,2,31,32,22,,,,,,,,,,3.9,2.3,3.2*3A
$GPRMC,182829.768,A,3525.8617,N,08052.4536,W,34.21,203.09,090316,,,A*4E
$GPVTG,203.09,T,,M,34.21,N,63.4,K,N*0F
$GPGGA,182830.768,3525.8566,N,08052.4580,W,1,03,2.3,32.9,M,-32.5,M,,0000*5E
$GPGLL,3525.8566,N,08052.4580,W,182830.768,A,A*48
$GPGSA,A,2,31,32,22,,,,,,,,,,3.9,2.3,3.2*3A
$GPRMC,182830.768,A,3525.8566,N,08052.4580,W,32.85,204.67,090316,,,A*49
$GPVTG,204.67,T,,M,32.85,N,60.8,K,N*07
$GPGGA,182831.768,3525.8417,N,08052.4567,W,1,03,2.3,32.9,M,-32.5,M,,0000*51
$GPGLL,3525.8417,N,08052.4567,W,182831.768,A,A*47
$GPGSA,A,2,31,32,22,,,,,,,,,,3.9,2.3,3.2*3A
$GPRMC,182831.768,A,3525.8417,N,08052.4567,W,27.27,204.89,090316,,,A*4A
$GPVTG,204.89,T,,M,27.27,N,50.5,K,N*05
$GPGGA,182832.768,3525.8405,N,08052.4714,W,1,03,2.3,32.9,M,-32.5,M,,0000*57
$GPGLL,3525.8405,N,08052.4714,W,182832.768,A,A*41
$GPGSA,A,2,31,32,22,,,,,,,,,,3.9,2.3,3.2*3A
$GPRMC,182832.768,A,3525.8405,N,08052.4714,W,26.31,205.88,090316,,,A*4A
$GPVTG,205.88,T,,M,26.31,N,48.7,K,N*08
$GPGGA,182833.768,3525.8313,N,08052.4781,W,1,03,2.3,32.9,M,-32.5,M,,0000*5A
$GPGLL,3525.8313,N,08052.4781,W,182833.768,A,A*4C
$GPGSA,A,2,31,32,22,,,,,,,,,,3.9,2.3,3.2*3A
$GPGSV,3,1,10,31,63,017,29,22,56,226,22,32,45,101,35,27,67,357,*76
$GPGSV,3,2,10,14,39,098,29,03,33,307,,16,27,193,14,29,11,081,14*70
$GPGSV,3,3,10,10,06,161,,23,04,302,*7D
$GPRMC,182833.768,A,3525.8313,N,08052.4781,W,26.43,206.13,090316,,,A*43
$GPVTG,206.13,T,,M,26.43,N,48.9,K,N*02
$GPGGA,182834.768,3525.8251,N,08052.4825,W,1,03,2.3,32.9,M,-32.5,M,,0000*5B
$GPGLL,3525.8251,N,08052.4825,W,182834.768,A,A*4D
$GPGSA,A,2,31,32,22,,,,,,,,,,3.9,2.3,3.2*3A
$GPRMC,182834.768,A,3525.8251,N,08052.4825,W,26.30,206.83,090316,,,A*4F
$GPVTG,206.83,T,,M,26.30,N,48.7,K,N*01
$GPGGA,182835.768,3525.8152,N,08052.4901,W,1,03,2.3,32.9,M,-32.5,M,,0000*5D
$GPGLL,3525.8152,N,08052.4901,W,182835.768,A,A*4B
$GPGSA,A,2,31,32,22,,,,,,,,,,3.9,2.3,3.2*3A
$GPRMC,182835.768,A,3525.8152,N,08052.4901,W,24.45,206.88,090316,,,A*42
$GPVTG,206.88,T,,M,24.45,N,45.3,K,N*03
$GPGGA,182836.768,3525.8095,N,08052.4931,W,1,03,2.3,32.9,M,-32.5,M,,0000*57
$GPGLL,3525.8095,N,08052.4931,W,182836.768,A,A*41
$GPGSA,A,2,31,32,22,,,,,,,,,,3.9,2.3,3.2*3A
$GPRMC,182836.768,A,3525.8095,N,08052.4931,W,22.19,204.44,090316,,,A*45
$GPVTG,204.44,T,,M,22.19,N,41.1,K,N*08
$GPGGA,182837.768,3525.8008,N,08052.4974,W,1,03,2.3,32.9,M,-32.5,M,,0000*53
$GPGLL,3525.8008,N,08052.4974,W,182837.768,A,A*45
$GPGSA,A,2,31,32,22,,,,,,,,,,3.9,2.3,3.2*3A
$GPRMC,182837.768,A,3525.8008,N,08052.4974,W,19.12,189.91,090316,,,A*4C
$GPVTG,189.91,T,,M,19.12,N,35.4,K,N*03
$GPGGA,182838.768,3525.7955,N,08052.5001,W,1,03,2.3,32.9,M,-32.5,M,,0000*58
$GPGLL,3525.7955,N,08052.5001,W,182838.768,A,A*4E
$GPGSA,A,2,31,32,22,,,,,,,,,,3.9,2.3,3.2*3A
$GPGSV,3,1,10,31,63,017,29,22,56,226,22,32,45,101,26,27,67,357,*74
$GPGSV,3,2,10,14,39,098,25,03,33,307,26,16,27,193,15,29,11,081,17*7A
$GPGSV,3,3,10,10,06,161,16,23,04,302,*7A
$GPRMC,182838.768,A,3525.7955,N,08052.5001,W,19.25,177.56,090316,,,A*49
$GPVTG,177.56,T,,M,19.25,N,35.6,K,N*0F
$GPGGA,182839.768,3525.7982,N,08052.4916,W,1,03,2.3,32.9,M,-32.5,M,,0000*5D
$GPGLL,3525.7982,N,08052.4916,W,182839.768,A,A*4B
$GPGSA,A,2,31,32,22,,,,,,,,,,3.9,2.3,3.2*3A
$GPRMC,182839.768,A,3525.7982,N,08052.4916,W,21.38,160.31,090316,,,A*4C
$GPVTG,160.31,T,,M,21.38,N,39.6,K,N*03
$GPGGA,182840.768,3525.7827,N,08052.4832,W,1,03,2.3,32.9,M,-32.5,M,,0000*5A
$GPGLL,3525.7827,N,08052.4832,W,182840.768,A,A*4C
$GPGSA,A,2,31,32,22,,,,,,,,,,3.9,2.3,3.2*3A
$GPRMC,182840.768,A,3525.7827,N,08052.4832,W,26.97,150.93,090316,,,A*42
$GPVTG,150.93,T,,M,26.97,N,49.9,K,N*02
$GPGGA,182841.768,3525.7822,N,08052.4896,W,1,03,2.3,32.9,M,-32.5,M,,0000*50
$GPGLL,3525.7822,N,08052.4896,W,182841.768,A,A*46
$GPGSA,A,2,31,32,22,,,,,,,,,,3.9,2.3,3.2*3A
$GPRMC,182841.768,A,3525.7822,N,08052.4896,W,29.26,150.19,090316,,,A*4F
$GPVTG,150.19,T,,M,29.26,N,54.2,K,N*02
$GPGGA,182842.768,3525.7729,N,08052.4870,W,1,03,2.3,32.9,M,-32.5,M,,0000*5F
$GPGLL,3525.7729,N,08052.4870,W,182842.768,A,A*49
$GPGSA,A,2,31,32,22,,,,,,,,,,3.9,2.3,3.2*3A
$GPRMC,182842.768,A,3525.7729,N,08052.4870,W,29.73,153.90,090316,,,A*42
$GPVTG,153.90,T,,M,29.73,N,55.1,K,N*02
$GPGGA,182843.768,3525.7702,N,08052.4866,W,1,03,2.3,32.9,M,-32.5,M,,0000*50
$GPGLL,3525.7702,N,08052.4866,W,182843.768,A,A*46
$GPGSA,A,2,31,32,22,,,,,,,,,,3.9,2.3,3.2*3A
$GPGSV,3,1,10,31,63,017,31,22,56,226,21,32,45,101,18,27,67,357,*73
$GPGSV,3,2,10,14,39,098,14,03,33,307,13,16,27,193,15,29,11,081,15*7C
$GPGSV,3,3,10,10,06,161,13,23,04,302,*7F
$GPRMC,182843.768,A,3525.7702,N,08052.4866,W,30.70,154.38,090316,,,A*43
$GPVTG,154.38,T,,M,30.70,N,56.8,K,N*06
$GPGGA,182844.768,3525.7668,N,08052.4846,W,1,03,2.3,32.9,M,-32.5,M,,0000*58
$GPGLL,3525.7668,N,08052.4846,W,182844.768,A,A*4E
$GPGSA,A,2,31,32,22,,,,,,,,,,3.9,2.3,3.2*3A
$GPRMC,182844.768,A,3525.7668,N,08052.4846,W,31.82,153.36,090316,,,A*4E
$GPVTG,153.36,T,,M,31.82,N,58.9,K,N*0C
$GPGGA,182845.768,3525.7619,N,08052.4732,W,1,03,2.3,32.9,M,-32.5,M,,0000*53
$GPGLL,3525.7619,N,08052.4732,W,182845.768,A,A*45
$GPGSA,A,2,31,32,22,,,,,,,,,,3.9,2.3,3.2*3A
$GPRMC,182845.768,A,3525.7619,N,08052.4732,W,33.01,152.39,090316,,,A*42
$GPVTG,152.39,T,,M,33.01,N,61.1,K,N*09
$GPGGA,182846.768,3525.7489,N,08052.4635,W,1,03,2.3,32.9,M,-32.5,M,,0000*5D
$GPGLL,3525.7489,N,08052.4635,W,182846.768,A,A*4B
$GPGSA,A,2,31,32,22,,,,,,,,,,3.9,2.3,3.2*3A
$GPRMC,182846.768,A,3525.7489,N,08052.4635,W,33.41,155.66,090316,,,A*45
$GPVTG,155.66,T,,M,33.41,N,61.9,K,N*08
$GPGGA,182847.768,3525.7431,N,08052.4616,W,1,03,2.3,32.9,M,-32.5,M,,0000*5E
$GPGLL,3525.7431,N,08052.4616,W,182847.768,A,A*48
$GPGSA,A,2,31,32,22,,,,,,,,,,3.9,2.3,3.2*3A
$GPRMC,182847.768,A,3525.7431,N,08052.4616,W,33.38,155.38,090316,,,A*43
$GPVTG,155.38,T,,M,33.38,N,61.8,K,N*0C
$GPGGA,182848.768,3525.7282,N,08052.4545,W,1,03,2.3,32.9,M,-32.5,M,,0000*5A
$GPGLL,3525.7282,N,08052.4545,W,182848.768,A,A*4C
$GPGSA,A,2,31,32,22,,,,,,,,,,3.9,2.3,3.2*3A
$GPGSV,3,1,10,31,63,017,32,22,56,226,20,32,45,101,17,27,67,357,*7E
$GPGSV,3,2,10,14,39,098,24,03,33,307,,16,27,193,,29,11,081,*7D
$GPGSV,3,3,10,10,06,161,13,23,04,302,*7F
$GPRMC,182848.768,A,3525.7282,N,08052.4545,W,35.39,153.95,090316,,,A*41
$GPVTG,153.95,T,,M,35.39,N,65.5,K,N*03
$GPGGA,182849.768,3525.7223,N,08052.4588,W,1,03,2.3,32.9,M,-32.5,M,,0000*51
$GPGLL,3525.7223,N,08052.4588,W,182849.768,A,A*47
$GPGSA,A,2,31,32,22,,,,,,,,,,3.9,2.3,3.2*3A
$GPRMC,182849.768,A,3525.7223,N,08052.4588,W,38.65,153.12,090316,,,A*41
$GPVTG,153.12,T,,M,38.65,N,71.6,K,N*0E
$GPGGA,182850.768,3525.7167,N,08052.4504,W,1,03,2.3,32.9,M,-32.5,M,,0000*5E
$GPGLL,3525.7167,N,08052.4504,W,182850.768,A,A*48
$GPGSA,A,2,31,32,22,,,,,,,,,,3.9,2.3,3.2*3A
$GPRMC,182850.768,A,3525.7167,N,08052.4504,W,39.51,153.08,090316,,,A*43
$GPVTG,153.08,T,,M,39.51,N,73.2,K,N*05
$GPGGA,182851.768,3525.6997,N,08052.4461,W,1,03,2.3,32.9,M,-32.5,M,,0000*5B
$GPGLL,3525.6997,N,08052.4461,W,182851.768,A,A*4D
$GPGSA,A,2,31,32,22,,,,,,,,,,3.9,2.3,3.2*3A
$GPRMC,182851.768,A,3525.6997,N,08052.4461,W,39.03,152.90,090316,,,A*41
$GPVTG,152.90,T,,M,39.03,N,72.3,K,N*02
$GPGGA,182852.768,3525.6894,N,08052.4344,W,1,03,2.3,32.9,M,-32.5,M,,0000*5A
$GPGLL,3525.6894,N,08052.4344,W,182852.768,A,A*4C
$GPGSA,A,2,31,32,22,,,,,,,,,,3.9,2.3,3.2*3A
$GPRMC,182852.768,A,3525.6894,N,08052.4344,W,37.23,153.45,090316,,,A*45
$GPVTG,153.45,T,,M,37.23,N,69.0,K,N*0E
$GPGGA,182853.769,3525.6798,N,08052.4346,W,1,03,2.3,32.9,M,-32.5,M,,0000*5B
$GPGLL,3525.6798,N,08052.4346,W,182853.769,A,A*4D
$GPGSA,A,2,31,32,22,,,,,,,,,,3.9,2.3,3.2*3A
$GPGSV,3,1,10,31,63,017,32,22,56,226,20,32,45,101,16,27,67,357,*7F
$GPGSV,3,2,10,14,39,098,22,03,33,307,,16,27,193,,29,11,081,*7B
$GPGSV,3,3,10,10,06,161,,23,04,302,*7D
$GPRMC,182853.769,A,3525.6798,N,08052.4346,W,36.21,150.55,090316,,,A*45
$GPVTG,150.55,T,,M,36.21,N,67.1,K,N*00
$GPGGA,182854.768,3525.6761,N,08052.4318,W,1,03,2.3,32.9,M,-32.5,M,,0000*50
$GPGLL,3525.6761,N,08052.4318,W,182854.768,A,A*46
$GPGSA,A,2,31,32,22,,,,,,,,,,3.9,2.3,3.2*3A
$GPRMC,182854.768,A,3525.6761,N,08052.4318,W,35.54,153.21,090316,,,A*4F
$GPVTG,153.21,T,,M,35.54,N,65.8,K,N*0A
$GPGGA,182855.768,3525.6673,N,08052.4317,W,1,03,2.3,32.9,M,-32.5,M,,0000*5C
$GPGLL,3525.6673,N,08052.4317,W,182855.768,A,A*4A
$GPGSA,A,2,31,32,22,,,,,,,,,,3.9,2.3,3.2*3A
$GPRMC,182855.768,A,3525.6673,N,08052.4317,W,33.79,154.23,090316,,,A*4F
$GPVTG,154.23,T,,M,33.79,N,62.6,K,N*0F
$GPGGA,182856.768,3525.6583,N,08052.4158,W,1,03,2.3,32.9,M,-32.5,M,,0000*5A
$GPGLL,3525.6583,N,08052.4158,W,182856.768,A,A*4C
$GPGSA,A,2,31,32,22,,,,,,,,,,3.9,2.3,3.2*3A
$GPRMC,182856.768,A,3525.6583,N,08052.4158,W,34.36,155.80,090316,,,A*4D
$GPVTG,155.80,T,,M,34.36,N,63.6,K,N*0A
$GPGGA,182857.769,3525.6482,N,08052.4035,W,1,03,2.3,32.9,M,-32.5,M,,0000*50
$GPGLL,3525.6482,N,08052.4035,W,182857.769,A,A*46
$GPGSA,A,2,31,32,22,,,,,,,,,,3.9,2.3,3.2*3A
$GPRMC,182857.769,A,3525.6482,N,08052.4035,W,34.23,155.60,090316,,,A*4D
$GPVTG,155.60,T,,M,34.23,N,63.4,K,N*02
$GPGGA,182858.768,3525.6482,N,08052.3965,W,1,03,2.3,32.9,M,-32.5,M,,0000*55
$GPGLL,3525.6482,N,08052.3965,W,182858.768,A,A*43
$GPGSA,A,2,31,32,22,,,,,,,,,,3.9,2.3,3.2*3A
$GPGSV,3,1,10,31,63,017,33,22,56,226,19,32,45,101,17,27,67,357,*75
$GPGSV,3,2,10,14,39,098,22,03,33,307,,16,27,193,,29,11,081,*7B
$GPGSV,3,3,10,10,06,161,,23,04,302,*7D
$GPRMC,182858.768,A,3525.6482,N,08052.3965,W,34.18,154.47,090316,,,A*44
$GPVTG,154.47,T,,M,34.18,N,63.3,K,N*09
$GPGGA,182859.768,3525.6366,N,08052.3856,W,1,03,2.3,32.9,M,-32.5,M,,0000*58
$GPGLL,3525.6366,N,08052.3856,W,182859.768,A,A*4E
$GPGSA,A,2,31,32,22,,,,,,,,,,3.9,2.3,3.2*3A
$GPRMC,182859.768,A,3525.6366,N,08052.3856,W,32.65,148.33,090316,,,A*4B
$GPVTG,148.33,T,,M,32.65,N,60.5,K,N*0E
$GPGGA,182900.768,3525.6333,N,08052.3871,W,1,03,2.3,32.9,M,-32.5,M,,0000*50
$GPGLL,3525.6333,N,08052.3871,W,182900.768,A,A*46
$GPGSA,A,2,31,32,22,,,,,,,,,,3.9,2.3,3.2*3A
$GPRMC,182900.768,A,3525.6333,N,08052.3871,W,0.00,,090316,,,A*62
$GPVTG,,T,,M,0.00,N,0.0,K,N*1C
$GPGGA,182901.768,,,,,0,00,,,M,0.0,M,,0000*5C
$GPGLL,,,,,182901.768,V,N*70
$GPGSA,A,1,,,,,,,,,,,,,,,*1E
$GPRMC,182901.768,V,,,,,,,090316,,,N*4A
$GPVTG,,T,,M,,N,,K,N*2C
$GPGGA,182902.767,,,,,0,00,,,M,0.0,M,,0000*50
$GPGLL,,,,,182902.767,V,N*7C
$GPGSA,A,1,,,,,,,,,,,,,,,*1E
$GPRMC,182902.767,V,,,,,,,090316,,,N*46
$GPVTG,,T,,M,,N,,K,N*2C
$GPGGA,182903.768,,,,,0,00,,,M,0.0,M,,0000*5E
$GPGLL,,,,,182903.768,V,N*72
$GPGSA,A,1,,,,,,,,,,,,,,,*1E
$GPGSV,3,1,10,31,63,017,33,22,56,226,,32,45,101,22,27,67,357,*7B
$GPGSV,3,2,10,14,39,098,23,03,33,307,,16,27,193,,29,11,081,*7A
$GPGSV,3,3,10,10,06,161,,23,04,302,*7D
$GPRMC,182903.768,V,,,,,,,090316,,,N*48
$GPVTG,,T,,M,,N,,K,N*2C
$GPGGA,182904.768,,,,,0,00,,,M,0.0,M,,0000*59
$GPGLL,,,,,182904.768,V,N*75
$GPGSA,A,1,,,,,,,,,,,,,,,*1E
$GPRMC,182904.768,V,,,,,,,090316,,,N*4F
$GPVTG,,T,,M,,N,,K,N*2C
$GPGGA,182905.768,3525.5791,N,08052.3743,W,1,03,2.3,32.9,M,-32.5,M,,0000*54
$GPGLL,3525.5791,N,08052.3743,W,182905.768,A,A*42
$GPGSA,A,2,31,32,22,,,,,,,,,,3.9,2.3,3.2*3A
$GPRMC,182905.768,A,3525.5791,N,08052.3743,W,36.29,151.58,090316,,,A*4E
$GPVTG,151.58,T,,M,36.29,N,67.2,K,N*07
$GPGGA,182906.768,3525.5680,N,08052.3651,W,1,03,2.3,32.9,M,-32.5,M,,0000*54
$GPGLL,3525.5680,N,08052.3651,W,182906.768,A,A*42
$GPGSA,A,2,31,32,22,,,,,,,,,,3.9,2.3,3.2*3A
$GPRMC,182906.768,A,3525.5680,N,08052.3651,W,31.59,157.57,090316,,,A*47
$GPVTG,157.57,T,,M,31.59,N,58.5,K,N*05
$GPGGA,182907.768,3525.5630,N,08052.3627,W,1,03,2.3,32.9,M,-32.5,M,,0000*5F
$GPGLL,3525.5630,N,08052.3627,W,182907.768,A,A*49
$GPGSA,A,2,31,32,22,,,,,,,,,,3.9,2.3,3.2*3A
$GPRMC,182907.768,A,3525.5630,N,08052.3627,W,30.57,156.76,090316,,,A*41
$GPVTG,156.76,T,,M,30.57,N,56.6,K,N*05
$GPGGA,182908.768,3525.5535,N,08052.3629,W,1,03,2.3,32.9,M,-32.5,M,,0000*58
$GPGLL,3525.5535,N,08052.3629,W,182908.768,A,A*4E
$GPGSA,A,2,31,32,22,,,,,,,,,,3.9,2.3,3.2*3A
$GPGSV,3,1,10,31,63,017,32,22,56,226,19,32,45,101,20,27,67,357,*70
$GPGSV,3,2,10,14,39,098,23,03,33,307,,16,27,193,15,29,11,081,*7E
$GPGSV,3,3,10,10,06,161,,23,04,302,*7D
$GPRMC,182908.768,A,3525.5535,N,08052.3629,W,28.66,159.90,090316,,,A*4A
$GPVTG,159.90,T,,M,28.66,N,53.1,K,N*0B
$GPGGA,182909.768,3525.5506,N,08052.3579,W,1,03,2.3,32.9,M,-32.5,M,,0000*5F
$GPGLL,3525.5506,N,08052.3579,W,182909.768,A,A*49
$GPGSA,A,2,31,32,22,,,,,,,,,,3.9,2.3,3.2*3A
$GPRMC,182909.768,A,3525.5506,N,08052.3579,W,29.25,158.64,090316,,,A*41
$GPVTG,158.64,T,,M,29.25,N,54.2,K,N*03
$GPGGA,182910.769,,,,,0,00,,,M,0.0,M,,0000*5D
$GPGLL,,,,,182910.769,V,N*71
$GPGSA,A,1,,,,,,,,,,,,,,,*1E
$GPRMC,182910.769,V,,,,,,,090316,,,N*4B
$GPVTG,,T,,M,,N,,K,N*2C
$GPGGA,182911.769,,,,,0,00,,,M,0.0,M,,0000*5C
$GPGLL,,,,,182911.769,V,N*70
$GPGSA,A,1,,,,,,,,,,,,,,,*1E
$GPRMC,182911.769,V,,,,,,,090316,,,N*4A
$GPVTG,,T,,M,,N,,K,N*2C
$GPGGA,182912.769,,,,,0,00,,,M,0.0,M,,0000*5F
$GPGLL,,,,,182912.769,V,N*73
$GPGSA,A,1,,,,,,,,,,,,,,,*1E
$GPRMC,182912.769,V,,,,,,,090316,,,N*49
$GPVTG,,T,,M,,N,,K,N*2C
$GPGGA,182913.769,,,,,0,00,,,M,0.0,M,,0000*5E
$GPGLL,,,,,182913.769,V,N*72
$GPGSA,A,1,,,,,,,,,,,,,,,*1E
$GPGSV,3,1,10,31,62,018,33,22,55,224,19,32,44,101,,27,66,358,*73
$GPGSV,3,2,10,14,38,099,23,03,34,306,,16,28,193,14,29,12,080,*74
$GPGSV,3,3,10,10,06,161,16,23,04,302,*7A
$GPRMC,182913.769,V,,,,,,,090316,,,N*48
$GPVTG,,T,,M,,N,,K,N*2C
$GPGGA,182914.769,,,,,0,00,,,M,0.0,M,,0000*59
$GPGLL,,,,,182914.769,V,N*75
$GPGSA,A,1,,,,,,,,,,,,,,,*1E
$GPRMC,182914.769,V,,,,,,,090316,,,N*4F
$GPVTG,,T,,M,,N,,K,N*2C
$GPGGA,182915.769,,,,,0,00,,,M,0.0,M,,0000*58
$GPGLL,,,,,182915.769,V,N*74
$GPGSA,A,1,,,,,,,,,,,,,,,*1E
$GPRMC,182915.769,V,,,,,,,090316,,,N*4E
$GPVTG,,T,,M,,N,,K,N*2C
$GPGGA,182916.768,,,,,0,00,,,M,0.0,M,,0000*5A
$GPGLL,,,,,182916.768,V,N*76
$GPGSA,A,1,,,,,,,,,,,,,,,*1E
$GPRMC,182916.768,V,,,,,,,090316,,,N*4C
$GPVTG,,T,,M,,N,,K,N*2C
$GPGGA,182917.768,,,,,0,00,,,M,0.0,M,,0000*5B
$GPGLL,,,,,182917.768,V,N*77
$GPGSA,A,1,,,,,,,,,,,,,,,*1E
$GPRMC,182917.768,V,,,,,,,090316,,,N*4D
$GPVTG,,T,,M,,N,,K,N*2C
$GPGGA,182918.768,,,,,0,00,,,M,0.0,M,,0000*54
$GPGLL,,,,,182918.768,V,N*78
$GPGSA,A,1,,,,,,,,,,,,,,,*1E
$GPGSV,3,1,10,31,62,018,33,22,55,224,,32,44,101,,27,66,358,*7B
$GPGSV,3,2,10,14,38,099,23,03,34,306,,16,28,193,14,29,12,080,*74
$GPGSV,3,3,10,10,06,161,16,23,04,302,*7A
$GPRMC,182918.768,V,,,,,,,090316,,,N*42
$GPVTG,,T,,M,,N,,K,N*2C
$GPGGA,182919.768,,,,,0,00,,,M,0.0,M,,0000*55
$GPGLL,,,,,182919.768,V,N*79
$GPGSA,A,1,,,,,,,,,,,,,,,*1E
$GPRMC,182919.768,V,,,,,,,090316,,,N*43
$GPVTG,,T,,M,,N,,K,N*2C
$GPGGA,182920.768,,,,,0,00,,,M,0.0,M,,0000*5F
$GPGLL,,,,,182920.768,V,N*73
$GPGSA,A,1,,,,,,,,,,,,,,,*1E
$GPRMC,182920.768,V,,,,,,,090316,,,N*49
$GPVTG,,T,,M,,N,,K,N*2C
$GPGGA,182921.768,,,,,0,00,,,M,0.0,M,,0000*5E
$GPGLL,,,,,182921.768,V,N*72
$GPGSA,A,1,,,,,,,,,,,,,,,*1E
$GPRMC,182921.768,V,,,,,,,090316,,,N*48
$GPVTG,,T,,M,,N,,K,N*2C
$GPGGA,182922.768,,,,,0,00,,,M,0.0,M,,0000*5D
$GPGLL,,,,,182922.768,V,N*71
$GPGSA,A,1,,,,,,,,,,,,,,,*1E
$GPRMC,182922.768,V,,,,,,,090316,,,N*4B
$GPVTG,,T,,M,,N,,K,N*2C
$GPGGA,182923.768,,,,,0,00,,,M,0.0,M,,0000*5C
$GPGLL,,,,,182923.768,V,N*70
$GPGSA,A,1,,,,,,,,,,,,,,,*1E
$GPGSV,3,1,10,31,62,018,33,22,55,224,,32,44,101,,27,66,358,*7B
$GPGSV,3,2,10,14,38,099,23,03,34,306,,16,28,193,13,29,12,080,*73
$GPGSV,3,3,10,10,06,161,23,23,04,302,*7C
$GPRMC,182923.768,V,,,,,,,090316,,,N*4A
$GPVTG,,T,,M,,N,,K,N*2C
$GPGGA,182924.768,,,,,0,00,,,M,0.0,M,,0000*5B
$GPGLL,,,,,182924.768,V,N*77
$GPGSA,A,1,,,,,,,,,,,,,,,*1E
$GPRMC,182924.768,V,,,,,,,090316,,,N*4D
$GPVTG,,T,,M,,N,,K,N*2C
$GPGGA,182925.768,,,,,0,00,,,M,0.0,M,,0000*5A
$GPGLL,,,,,182925.768,V,N*76
$GPGSA,A,1,,,,,,,,,,,,,,,*1E
$GPRMC,182925.768,V,,,,,,,090316,,,N*4C
$GPVTG,,T,,M,,N,,K,N*2C
$GPGGA,182926.769,,,,,0,00,,,M,0.0,M,,0000*58
$GPGLL,,,,,182926.769,V,N*74
$GPGSA,A,1,,,,,,,,,,,,,,,*1E
$GPRMC,182926.769,V,,,,,,,090316,,,N*4E
$GPVTG,,T,,M,,N,,K,N*2C
$GPGGA,182927.768,,,,,0,00,,,M,0.0,M,,0000*58
$GPGLL,,,,,182927.768,V,N*74
$GPGSA,A,1,,,,,,,,,,,,,,,*1E
$GPRMC,182927.768,V,,,,,,,090316,,,N*4E
$GPVTG,,T,,M,,N,,K,N*2C
$GPGGA,182928.768,,,,,0,00,,,M,0.0,M,,0000*57
$GPGLL,,,,,182928.768,V,N*7B
$GPGSA,A,1,,,,,,,,,,,,,,,*1E
$GPGSV,3,1,10,31,62,018,30,22,55,224,,32,44,101,19,27,66,358,*70
$GPGSV,3,2,10,14,38,099,23,03,34,306,,16,28,193,14,29,12,080,*74
$GPGSV,3,3,10,10,06,161,07,23,04,302,*7A
$GPRMC,182928.768,V,,,,,,,090316,,,N*41
$GPVTG,,T,,M,,N,,K,N*2C
$GPGGA,182929.768,3525.4047,N,08052.2721,W,1,03,2.3,32.9,M,-32.5,M,,0000*52
$GPGLL,3525.4047,N,08052.2721,W,182929.768,A,A*44
$GPGSA,A,2,31,32,22,,,,,,,,,,3.9,2.3,3.2*3A
$GPRMC,182929.768,A,3525.4047,N,08052.2721,W,15.15,183.16,090316,,,A*43
$GPVTG,183.16,T,,M,15.15,N,28.1,K,N*04
$GPGGA,182930.768,3525.4026,N,08052.2754,W,1,03,2.3,32.9,M,-32.5,M,,0000*5F
$GPGLL,3525.4026,N,08052.2754,W,182930.768,A,A*49
$GPGSA,A,2,31,32,22,,,,,,,,,,3.9,2.3,3.2*3A
$GPRMC,182930.768,A,3525.4026,N,08052.2754,W,15.34,199.41,090316,,,A*44
$GPVTG,199.41,T,,M,15.34,N,28.4,K,N*0B
$GPGGA,182931.768,3525.3838,N,08052.2713,W,1,03,2.3,32.9,M,-32.5,M,,0000*5D
$GPGLL,3525.3838,N,08052.2713,W,182931.768,A,A*4B
$GPGSA,A,2,31,32,22,,,,,,,,,,3.9,2.3,3.2*3A
$GPRMC,182931.768,A,3525.3838,N,08052.2713,W,15.87,199.49,090316,,,A*46
$GPVTG,199.49,T,,M,15.87,N,29.4,K,N*0A
$GPGGA,182932.768,3525.3908,N,08052.2813,W,1,03,2.3,32.9,M,-32.5,M,,0000*53
$GPGLL,3525.3908,N,08052.2813,W,182932.768,A,A*45
$GPGSA,A,2,31,32,22,,,,,,,,,,3.9,2.3,3.2*3A
$GPRMC,182932.768,A,3525.3908,N,08052.2813,W,15.54,186.97,090316,,,A*4B
$GPVTG,186.97,T,,M,15.54,N,28.8,K,N*04
$GPGGA,182933.768,3525.3916,N,08052.2775,W,1,03,2.3,32.9,M,-32.5,M,,0000*52
$GPGLL,3525.3916,N,08052.2775,W,182933.768,A,A*44
$GPGSA,A,2,31,32,22,,,,,,,,,,3.9,2.3,3.2*3A
$GPGSV,3,1,10,31,62,018,22,22,55,224,17,32,44,101,21,27,66,358,*7E
$GPGSV,3,2,10,14,38,099,,03,34,306,,16,28,193,14,29,12,080,*75
$GPGSV,3,3,10,10,06,161,,23,04,302,*7D
$GPRMC,182933.768,A,3525.3916,N,08052.2775,W,15.29,166.84,090316,,,A*4C
$GPVTG,166.84,T,,M,15.29,N,28.3,K,N*09
$GPGGA,182934.768,3525.3885,N,08052.2695,W,1,03,2.3,32.9,M,-32.5,M,,0000*51
$GPGLL,3525.3885,N,08052.2695,W,182934.768,A,A*47
$GPGSA,A,2,31,32,22,,,,,,,,,,3.9,2.3,3.2*3A
$GPRMC,182934.768,A,3525.3885,N,08052.2695,W,18.93,149.90,090316,,,A*4B
$GPVTG,149.90,T,,M,18.93,N,35.1,K,N*03
$GPGGA,182935.768,3525.3911,N,08052.2739,W,1,03,2.3,32.9,M,-32.5,M,,0000*5B
$GPGLL,3525.3911,N,08052.2739,W,182935.768,A,A*4D
$GPGSA,A,2,31,32,22,,,,,,,,,,3.9,2.3,3.2*3A
$GPRMC,182935.768,A,3525.3911,N,08052.2739,W,17.42,141.73,090316,,,A*47
$GPVTG,141.73,T,,M,17.42,N,32.3,K,N*00
$GPGGA,182936.768,3525.3895,N,08052.2737,W,1,03,2.3,32.9,M,-32.5,M,,0000*5B
$GPGLL,3525.3895,N,08052.2737,W,182936.768,A,A*4D
$GPGSA,A,2,31,32,22,,,,,,,,,,3.9,2.3,3.2*3A
$GPRMC,182936.768,A,3525.3895,N,08052.2737,W,17.81,112.01,090316,,,A*4B
$GPVTG,112.01,T,,M,17.81,N,33.0,K,N*0E
$GPGGA,182937.768,3525.3836,N,08052.2613,W,1,03,2.3,32.9,M,-32.5,M,,0000*54
$GPGLL,3525.3836,N,08052.2613,W,182937.768,A,A*42
$GPGSA,A,2,31,32,22,,,,,,,,,,3.9,2.3,3.2*3A
$GPRMC,182937.768,A,3525.3836,N,08052.2613,W,19.26,84.06,090316,,,A*7E
$GPVTG,84.06,T,,M,19.26,N,35.7,K,N*35
$GPGGA,182938.768,3525.3926,N,08052.2595,W,1,03,2.3,32.9,M,-32.5,M,,0000*56
$GPGLL,3525.3926,N,08052.2595,W,182938.768,A,A*40
$GPGSA,A,2,31,32,22,,,,,,,,,,3.9,2.3,3.2*3A
$GPGSV,3,1,10,31,62,018,21,22,55,224,17,32,44,101,20,27,66,358,*7C
$GPGSV,3,2,10,14,38,099,,03,34,306,24,16,28,193,13,29,12,080,*74
$GPGSV,3,3,10,10,06,161,,23,04,302,*7D
$GPRMC,182938.768,A,3525.3926,N,08052.2595,W,23.29,73.23,090316,,,A*75
$GPVTG,73.23,T,,M,23.29,N,43.1,K,N*3B
$GPGGA,182939.768,3525.3891,N,08052.2501,W,1,03,2.3,32.9,M,-32.5,M,,0000*57
$GPGLL,3525.3891,N,08052.2501,W,182939.768,A,A*41
$GPGSA,A,2,31,32,22,,,,,,,,,,3.9,2.3,3.2*3A
$GPRMC,182939.768,A,3525.3891,N,08052.2501,W,24.42,76.36,090316,,,A*7F
$GPVTG,76.36,T,,M,24.42,N,45.2,K,N*35
$GPGGA,182940.768,3525.3912,N,08052.2455,W,1,03,2.3,32.9,M,-32.5,M,,0000*53
$GPGLL,3525.3912,N,08052.2455,W,182940.768,A,A*45
$GPGSA,A,2,31,32,22,,,,,,,,,,3.9,2.3,3.2*3A
$GPRMC,182940.768,A,3525.3912,N,08052.2455,W,26.42,86.30,090316,,,A*70
$GPVTG,86.30,T,,M,26.42,N,48.9,K,N*38
$GPGGA,182941.768,3525.3965,N,08052.2298,W,1,03,2.3,32.9,M,-32.5,M,,0000*55
$GPGLL,3525.3965,N,08052.2298,W,182941.768,A,A*43
$GPGSA,A,2,31,32,22,,,,,,,,,,3.9,2.3,3.2*3A
$GPRMC,182941.768,A,3525.3965,N,08052.2298,W,27.86,92.32,090316,,,A*78
$GPVTG,92.32,T,,M,27.86,N,51.6,K,N*31
$GPGGA,182942.768,3525.3793,N,08052.2205,W,1,03,2.3,32.9,M,-32.5,M,,0000*55
$GPGLL,3525.3793,N,08052.2205,W,182942.768,A,A*43
$GPGSA,A,2,31,32,22,,,,,,,,,,3.9,2.3,3.2*3A
$GPRMC,182942.768,A,3525.3793,N,08052.2205,W,24.28,104.04,090316,,,A*44
$GPVTG,104.04,T,,M,24.28,N,45.0,K,N*0E
$GPGGA,182943.768,3525.3791,N,08052.2167,W,1,03,2.3,32.9,M,-32.5,M,,0000*51
$GPGLL,3525.3791,N,08052.2167,W,182943.768,A,A*47
$GPGSA,A,2,31,32,22,,,,,,,,,,3.9,2.3,3.2*3A
$GPGSV,3,1,10,31,62,018,23,22,55,224,17,32,44,101,22,27,66,358,*7C
$GPGSV,3,2,10,14,38,099,20,03,34,306,,16,28,193,,29,12,080,*72
$GPGSV,3,3,10,10,06,161,,23,04,302,*7D
$GPRMC,182943.768,A,3525.3791,N,08052.2167,W,25.38,121.29,090316,,,A*48
$GPVTG,121.29,T,,M,25.38,N,47.0,K,N*04
$GPGGA,182944.768,3525.3760,N,08052.2019,W,1,03,2.3,32.9,M,-32.5,M,,0000*50
$GPGLL,3525.3760,N,08052.2019,W,182944.768,A,A*46
$GPGSA,A,2,31,32,22,,,,,,,,,,3.9,2.3,3.2*3A
$GPRMC,182944.768,A,3525.3760,N,08052.2019,W,26.19,129.35,090316,,,A*4C
$GPVTG,129.35,T,,M,26.19,N,48.5,K,N*0B
$GPGGA,182945.768,3525.3653,N,08052.2016,W,1,03,2.3,32.9,M,-32.5,M,,0000*5F
$GPGLL,3525.3653,N,08052.2016,W,182945.768,A,A*49
$GPGSA,A,2,31,32,22,,,,,,,,,,3.9,2.3,3.2*3A
$GPRMC,182945.768,A,3525.3653,N,08052.2016,W,29.98,132.02,090316,,,A*4B
$GPVTG,132.02,T,,M,29.98,N,55.5,K,N*0F
$GPGGA,182946.768,3525.3598,N,08052.1935,W,1,03,2.3,32.9,M,-32.5,M,,0000*53
$GPGLL,3525.3598,N,08052.1935,W,182946.768,A,A*45
$GPGSA,A,2,31,32,22,,,,,,,,,,3.9,2.3,3.2*3A
$GPRMC,182946.768,A,3525.3598,N,08052.1935,W,30.09,132.75,090316,,,A*47
$GPVTG,132.75,T,,M,30.09,N,55.7,K,N*0D
$GPGGA,182947.768,3525.3529,N,08052.1811,W,1,03,2.3,32.9,M,-32.5,M,,0000*5F
$GPGLL,3525.3529,N,08052.1811,W,182947.768,A,A*49
$GPGSA,A,2,31,32,22,,,,,,,,,,3.9,2.3,3.2*3A
$GPRMC,182947.768,A,3525.3529,N,08052.1811,W,30.40,134.67,090316,,,A*43
$GPVTG,134.67,T,,M,30.40,N,56.3,K,N*02
$GPGGA,182948.768,3525.3477,N,08052.1835,W,1,03,2.3,32.9,M,-32.5,M,,0000*5C
$GPGLL,3525.3477,N,08052.1835,W,182948.768,A,A*4A
$GPGSA,A,2,31,32,22,,,,,,,,,,3.9,2.3,3.2*3A
$GPGSV,3,1,10,31,62,018,31,22,55,224,23,32,44,101,24,27,66,358,*7E
$GPGSV,3,2,10,14,38,099,20,03,34,306,,16,28,193,,29,12,080,*72
$GPGSV,3,3,10,10,06,161,,23,04,302,*7D
$GPRMC,182948.768,A,3525.3477,N,08052.1835,W,30.66,133.96,090316,,,A*4D
$GPVTG,133.96,T,,M,30.66,N,56.8,K,N*04
$GPGGA,182949.768,3525.3389,N,08052.1721,W,1,03,2.3,32.9,M,-32.5,M,,0000*51
$GPGLL,3525.3389,N,08052.1721,W,182949.768,A,A*47
$GPGSA,A,2,31,32,22,,,,,,,,,,3.9,2.3,3.2*3A
$GPRMC,182949.768,A,3525.3389,N,08052.1721,W,30.48,137.94,090316,,,A*4A
$GPVTG,137.94,T,,M,30.48,N,56.4,K,N*02
$GPGGA,182950.768,3525.3348,N,08052.1619,W,1,03,2.3,32.9,M,-32.5,M,,0000*5E
$GPGLL,3525.3348,N,08052.1619,W,182950.768,A,A*48
$GPGSA,A,2,31,32,22,,,,,,,,,,3.9,2.3,3.2*3A
$GPRMC,182950.768,A,3525.3348,N,08052.1619,W,30.77,141.81,090316,,,A*4C
$GPVTG,141.81,T,,M,30.77,N,57.0,K,N*0E
$GPGGA,182951.768,3525.3289,N,08052.1559,W,1,03,2.3,32.9,M,-32.5,M,,0000*54
$GPGLL,3525.3289,N,08052.1559,W,182951.768,A,A*42
$GPGSA,A,2,31,32,22,,,,,,,,,,3.9,2.3,3.2*3A
$GPRMC,182951.768,A,3525.3289,N,08052.1559,W,31.19,137.82,090316,,,A*4D
$GPVTG,137.82,T,,M,31.19,N,57.8,K,N*0D
$GPGGA,182952.768,3525.3223,N,08052.1542,W,1,03,2.3,32.9,M,-32.5,M,,0000*5D
$GPGLL,3525.3223,N,08052.1542,W,182952.768,A,A*4B
$GPGSA,A,2,31,32,22,,,,,,,,,,3.9,2.3,3.2*3A
$GPRMC,182952.768,A,3525.3223,N,08052.1542,W,31.19,132.19,090316,,,A*43
$GPVTG,132.19,T,,M,31.19,N,57.8,K,N*0A
$GPGGA,182953.768,3525.3165,N,08052.1448,W,1,03,2.3,32.9,M,-32.5,M,,0000*56
$GPGLL,3525.3165,N,08052.1448,W,182953.768,A,A*40
$GPGSA,A,2,31,32,22,,,,,,,,,,3.9,2.3,3.2*3A
$GPGSV,3,1,10,31,62,018,32,22,55,224,22,32,44,101,29,27,66,358,*71
$GPGSV,3,2,10,14,38,099,21,03,34,306,20,16,28,193,,29,12,080,*71
$GPGSV,3,3,10,10,06,161,,23,04,302,*7D
$GPRMC,182953.768,A,3525.3165,N,08052.1448,W,31.40,130.11,090316,,,A*4E
$GPVTG,130.11,T,,M,31.40,N,58.2,K,N*09
$GPGGA,182954.768,3525.3118,N,08052.1348,W,1,03,2.3,32.9,M,-32.5,M,,0000*5C
$GPGLL,3525.3118,N,08052.1348,W,182954.768,A,A*4A
$GPGSA,A,2,31,32,22,,,,,,,,,,3.9,2.3,3.2*3A
$GPRMC,182954.768,A,3525.3118,N,08052.1348,W,31.74,126.13,090316,,,A*46
$GPVTG,126.13,T,,M,31.74,N,58.8,K,N*01
$GPGGA,182955.768,3525.3062,N,08052.1265,W,1,03,2.3,32.9,M,-32.5,M,,0000*5F
$GPGLL,3525.3062,N,08052.1265,W,182955.768,A,A*49
$GPGSA,A,2,31,32,22,,,,,,,,,,3.9,2.3,3.2*3A
$GPRMC,182955.768,A,3525.3062,N,08052.1265,W,31.95,126.95,090316,,,A*44
$GPVTG,126.95,T,,M,31.95,N,59.2,K,N*0B
$GPGGA,182956.768,3525.3015,N,08052.1168,W,1,03,2.3,32.9,M,-32.5,M,,0000*52
$GPGLL,3525.3015,N,08052.1168,W,182956.768,A,A*44
$GPGSA,A,2,31,32,22,,,,,,,,,,3.9,2.3,3.2*3A
$GPRMC,182956.768,A,3525.3015,N,08052.1168,W,32.66,126.24,090316,,,A*4C
$GPVTG,126.24,T,,M,32.66,N,60.5,K,N*03
$GPGGA,182957.768,3525.3006,N,08052.1018,W,1,03,2.3,32.9,M,-32.5,M,,0000*57
$GPGLL,3525.3006,N,08052.1018,W,182957.768,A,A*41
$GPGSA,A,2,31,32,22,,,,,,,,,,3.9,2.3,3.2*3A
$GPRMC,182957.768,A,3525.3006,N,08052.1018,W,33.34,125.36,090316,,,A*4F
$GPVTG,125.36,T,,M,33.34,N,61.7,K,N*06
$GPGGA,182958.768,3525.2921,N,08052.0962,W,1,03,2.3,32.9,M,-32.5,M,,0000*50
$GPGLL,3525.2921,N,08052.0962,W,182958.768,A,A*46
$GPGSA,A,2,31,32,22,,,,,,,,,,3.9,2.3,3.2*3A
$GPGSV,3,1,10,31,62,018,32,22,55,224,23,32,44,101,29,27,66,358,*70
$GPGSV,3,2,10,14,38,099,28,03,34,306,18,16,28,193,,29,12,080,*73
$GPGSV,3,3,10,10,06,161,,23,04,302,*7D
$GPRMC,182958.768,A,3525.2921,N,08052.0962,W,33.05,127.65,090316,,,A*4E
$GPVTG,127.65,T,,M,33.05,N,61.2,K,N*05
$GPGGA,182959.768,3525.2855,N,08052.0887,W,1,03,2.3,32.9,M,-32.5,M,,0000*59
$GPGLL,3525.2855,N,08052.0887,W,182959.768,A,A*4F
$GPGSA,A,2,31,32,22,,,,,,,,,,3.9,2.3,3.2*3A
$GPRMC,182959.768,A,3525.2855,N,08052.0887,W,33.29,122.75,090316,,,A*4D
$GPVTG,122.75,T,,M,33.29,N,61.7,K,N*0A
$GPGGA,183000.768,3525.2835,N,08052.0752,W,1,03,2.3,32.9,M,-32.5,M,,0000*5C
$GPGLL,3525.2835,N,08052.0752,W,183000.768,A,A*4A
$GPGSA,A,2,31,32,22,,,,,,,,,,3.9,2.3,3.2*3A
$GPRMC,183000.768,A,3525.2835,N,08052.0752,W,32.09,128.35,090316,,,A*45
$GPVTG,128.35,T,,M,32.09,N,59.4,K,N*0F
$GPGGA,183001.768,3525.2769,N,08052.0685,W,1,03,2.3,32.9,M,-32.5,M,,0000*50
$GPGLL,3525.2769,N,08052.0685,W,183001.768,A,A*46
$GPGSA,A,2,31,32,22,,,,,,,,,,3.9,2.3,3.2*3A
$GPRMC,183001.768,A,3525.2769,N,08052.0685,W,31.90,124.02,090316,,,A*42
$GPVTG,124.02,T,,M,31.90,N,59.1,K,N*01
$GPGGA,183002.767,3525.2710,N,08052.0606,W,1,03,2.3,32.9,M,-32.5,M,,0000*59
$GPGLL,3525.2710,N,08052.0606,W,183002.767,A,A*4F
$GPGSA,A,2,31,32,22,,,,,,,,,,3.9,2.3,3.2*3A
$GPRMC,183002.767,A,3525.2710,N,08052.0606,W,31.43,124.20,090316,,,A*45
$GPVTG,124.20,T,,M,31.43,N,58.2,K,N*0D
$GPGGA,183003.768,3525.2672,N,08052.0502,W,1,03,2.3,32.9,M,-32.5,M,,0000*55
$GPGLL,3525.2672,N,08052.0502,W,183003.768,A,A*43
$GPGSA,A,2,31,32,22,,,,,,,,,,3.9,2.3,3.2*3A
$GPGSV,3,1,10,31,62,018,31,22,55,224,25,32,44,101,28,27,66,358,*74
$GPGSV,3,2,10,14,38,099,28,03,34,306,17,16,28,193,,29,12,080,*7C
$GPGSV,3,3,10,10,06,161,,23,04,302,*7D
$GPRMC,183003.768,A,3525.2672,N,08052.0502,W,30.97,124.40,090316,,,A*47
$GPVTG,124.40,T,,M,30.97,N,57.3,K,N*0D
$GPGGA,183004.768,3525.2630,N,08052.0482,W,1,03,2.3,32.9,M,-32.5,M,,0000*5D
$GPGLL,3525.2630,N,08052.0482,W,183004.768,A,A*4B
$GPGSA,A,2,31,32,22,,,,,,,,,,3.9,2.3,3.2*3A
$GPRMC,183004.768,A,3525.2630,N,08052.0482,W,31.46,121.35,090316,,,A*45
$GPVTG,121.35,T,,M,31.46,N,58.3,K,N*08
$GPGGA,183005.768,3525.2572,N,08052.0361,W,1,03,2.3,32.9,M,-32.5,M,,0000*53
$GPGLL,3525.2572,N,08052.0361,W,183005.768,A,A*45
$GPGSA,A,2,31,32,22,,,,,,,,,,3.9,2.3,3.2*3A
$GPRMC,183005.768,A,3525.2572,N,08052.0361,W,31.89,116.97,090316,,,A*44
$GPVTG,116.97,T,,M,31.89,N,59.1,K,N*04
$GPGGA,183006.768,3525.2538,N,08052.0228,W,1,03,2.3,32.9,M,-32.5,M,,0000*52
$GPGLL,3525.2538,N,08052.0228,W,183006.768,A,A*44
$GPGSA,A,2,31,32,22,,,,,,,,,,3.9,2.3,3.2*3A
$GPRMC,183006.768,A,3525.2538,N,08052.0228,W,32.11,112.21,090316,,,A*4E
$GPVTG,112.21,T,,M,32.11,N,59.5,K,N*0B
